"rent, rub/month",address,city,"price_per_sqm, rub/month","square, m^2",type,url,OSM_address,address_info,district,lat,lon,nearest_metro,distance_km,distance_center_km,distance_center_m,square_category,square_category_encoding
200000,Тосина,Санкт-Петербург,2361,84,Универсальное помещение,https://spb.n1.ru/view/115905928/?open_card_kn,"Тосина, 1 корп. 2, Санкт-Петербург, Россия","{'district': 'округ Волковское', 'lat': 59.9026624, 'lon': 30.3492357}",округ Волковское,59.9026624,30.3492357,"Санкт-Петербург, Волковская",0.8797842474061954,4.5,4500,Средняя,2
330000,Заставская,Санкт-Петербург,6600,50,Универсальное помещение,https://spb.n1.ru/view/115285927/?open_card_kn,"Заставская, 30, Санкт-Петербург, Россия","{'district': 'округ Московская застава', 'lat': 59.8873312, 'lon': 30.3437813}",округ Московская застава,59.8873312,30.3437813,"Санкт-Петербург, Волковская",1.249200816154861,5.93,5930,Средняя,2
490000,Науки проспект,Санкт-Петербург,8750,56,Универсальное помещение,https://spb.n1.ru/view/115986821/?open_card_kn,"Науки проспект, 23 корп. 2, Санкт-Петербург, Россия","{'district': 'округ Пискарёвка', 'lat': 60.0037408, 'lon': 30.4352109}",округ Пискарёвка,60.0037408,30.4352109,"Санкт-Петербург, Академическая",2.414211067563522,10.22,10220,Средняя,2
31500,Индустриальный проспект,Санкт-Петербург,750,42,Универсальное помещение,https://spb.n1.ru/view/115970363/?open_card_kn,"Индустриальный проспект, 11, Санкт-Петербург, Россия","{'district': 'округ Пороховые', 'lat': 59.9384646, 'lon': 30.4772833}",округ Пороховые,59.9384646,30.4772833,"Санкт-Петербург, Проспект Большевиков",2.159402619052288,9.43,9430,Маленькая,1
350000,Маяковского,Санкт-Петербург,5833,60,Универсальное помещение,https://spb.n1.ru/view/115613437/?open_card_kn,"Маяковского, 3, Санкт-Петербург, Россия","{'district': 'Литейный округ', 'lat': 59.9339801, 'lon': 30.3550414}",Литейный округ,59.9339801,30.3550414,"Санкт-Петербург, Маяковская",0.2652157389059218,2.63,2630,Средняя,2
95000,Выборгское шоссе,Санкт-Петербург,2300,41,Универсальное помещение,https://spb.n1.ru/view/114195214/?open_card_kn,"Выборгское шоссе, 15, Санкт-Петербург, Россия","{'district': 'округ Шувалово-Озерки', 'lat': 60.0528093, 'lon': 30.3120543}",округ Шувалово-Озерки,60.0528093,30.3120543,"Санкт-Петербург, Проспект Просвещения",1.1554532355009075,12.85,12850,Маленькая,1
159120,Салова,Санкт-Петербург,2600,61,Универсальное помещение,https://spb.n1.ru/view/114501131/?open_card_kn,"Салова, 61, Санкт-Петербург, Россия","{'district': 'округ Волковское', 'lat': 59.8849503, 'lon': 30.368332}",округ Волковское,59.8849503,30.368332,"Санкт-Петербург, Бухарестская",0.1665904441495153,6.74,6740,Средняя,2
200000,Лисичанская,Санкт-Петербург,2985,67,Универсальное помещение,https://spb.n1.ru/view/115181879/?open_card_kn,"Лисичанская, 22, Санкт-Петербург, Россия","{'district': 'округ Ланское', 'lat': 59.986492, 'lon': 30.3082139}",округ Ланское,59.986492,30.3082139,"Санкт-Петербург, Чёрная речка",0.42426219581425173,5.46,5460,Средняя,2
400000,Кирочная,Санкт-Петербург,5194,77,Универсальное помещение,https://spb.n1.ru/view/116199898/?open_card_kn,"Кирочная, 19, Санкт-Петербург, Россия","{'district': 'Литейный округ', 'lat': 59.9435953, 'lon': 30.360381}",Литейный округ,59.9435953,30.360381,"Санкт-Петербург, Чернышевская",0.10586840557738746,2.97,2970,Средняя,2
351540,Невский проспект,Санкт-Петербург,2100,167,Универсальное помещение,https://spb.n1.ru/view/116182659/?open_card_kn,"Невский проспект, 173, Санкт-Петербург, Россия","{'district': 'округ Смольнинское', 'lat': 59.9241356, 'lon': 30.3830244}",округ Смольнинское,59.9241356,30.3830244,"Санкт-Петербург, Площадь Александра Невского-2",0.06652399312117382,4.42,4420,Большая,3
210800,Манежная площадь,Санкт-Петербург,850,248,Универсальное помещение,https://spb.n1.ru/view/115510589/?open_card_kn,"Манежная площадь, 5, Санкт-Петербург, Россия","{'district': 'Дворцовый округ', 'lat': 59.9362281, 'lon': 30.3406479}",Дворцовый округ,59.9362281,30.3406479,"Санкт-Петербург, Гостиный Двор",0.5778166315775033,1.8,1800,Большая,3
670000,Белинского,Санкт-Петербург,3941,170,Универсальное помещение,https://spb.n1.ru/view/115840021/?open_card_kn,"Белинского, 8, Санкт-Петербург, Россия","{'district': 'Литейный округ', 'lat': 59.9382458, 'lon': 30.3459714}",Литейный округ,59.9382458,30.3459714,"Санкт-Петербург, Маяковская",0.8947650742875317,2.09,2090,Большая,3
1100000,Морской проспект,Санкт-Петербург,2972,370,Универсальное помещение,https://spb.n1.ru/view/115820230/?open_card_kn,"Морской проспект, 28, Санкт-Петербург, Россия","{'district': 'округ Чкаловское', 'lat': 59.9703545, 'lon': 30.2618577}",округ Чкаловское,59.9703545,30.2618577,"Санкт-Петербург, Крестовский остров",0.20548301429836688,4.5,4500,Крупная,4
360000,Невский проспект,Санкт-Петербург,6000,60,Универсальное помещение,https://spb.n1.ru/view/116104132/?open_card_kn,"Невский проспект, 136, Санкт-Петербург, Россия","{'district': 'округ Лиговка-Ямская', 'lat': 59.9303542, 'lon': 30.3682305}",округ Лиговка-Ямская,59.9303542,30.3682305,"Санкт-Петербург, Площадь Восстания",0.4523912156154072,3.43,3430,Средняя,2
550000,Казанская,Санкт-Петербург,9166,60,Универсальное помещение,https://spb.n1.ru/view/115805435/?open_card_kn,"Казанская, 22, Санкт-Петербург, Россия","{'district': 'округ № 78', 'lat': 59.9310323, 'lon': 30.3201602}",округ № 78,59.9310323,30.3201602,"Санкт-Петербург, Сенная площадь",0.4389491245647951,0.97,970,Средняя,2
190000,Салова,Санкт-Петербург,3386,56,Универсальное помещение,https://spb.n1.ru/view/111014705/?open_card_kn,"Салова, 61, Санкт-Петербург, Россия","{'district': 'округ Волковское', 'lat': 59.8849503, 'lon': 30.368332}",округ Волковское,59.8849503,30.368332,"Санкт-Петербург, Бухарестская",0.1665904441495153,6.74,6740,Средняя,2
148000,Заречная,Санкт-Петербург,2000,74,Универсальное помещение,https://spb.n1.ru/view/112849829/?open_card_kn,"Заречная, 19 корп. 1, Санкт-Петербург, Россия","{'district': 'Торфяное', 'lat': 60.082999, 'lon': 30.3426243}",Торфяное,60.082999,30.3426243,"Санкт-Петербург, Парнас",1.8503393741469367,16.32,16320,Средняя,2
222000,Заречная,Санкт-Петербург,2000,111,Универсальное помещение,https://spb.n1.ru/view/112849828/?open_card_kn,"Заречная, 19 корп. 1, Санкт-Петербург, Россия","{'district': 'Торфяное', 'lat': 60.082999, 'lon': 30.3426243}",Торфяное,60.082999,30.3426243,"Санкт-Петербург, Парнас",1.8503393741469367,16.32,16320,Средняя,2
80000,Предпортовая,Санкт-Петербург,1000,80,Универсальное помещение,https://spb.n1.ru/view/114316933/?open_card_kn,"Предпортовая, 3, Санкт-Петербург, Россия","{'district': 'округ Новоизмайловское', 'lat': 59.8319517, 'lon': 30.3027941}",округ Новоизмайловское,59.8319517,30.3027941,"Санкт-Петербург, Московская",2.469122290215357,11.76,11760,Средняя,2
100000,Гражданский проспект,Санкт-Петербург,3225,31,Универсальное помещение,https://spb.n1.ru/view/113616235/?open_card_kn,"Гражданский проспект, 113 корп. 3, Санкт-Петербург, Россия","{'district': 'округ № 21', 'lat': 60.0354362, 'lon': 30.4204274}",округ № 21,60.0354362,30.4204274,"Санкт-Петербург, Гражданский проспект",0.13534126366161855,12.57,12570,Маленькая,1
200000,Коломяжский проспект,Санкт-Петербург,2666,75,Универсальное помещение,https://spb.n1.ru/view/113616231/?open_card_kn,"Коломяжский проспект, 15 корп. 1, Санкт-Петербург, Россия","{'district': 'округ Комендантский аэродром', 'lat': 60.0145485, 'lon': 30.2937722}",округ Комендантский аэродром,60.0145485,30.2937722,"Санкт-Петербург, Удельная",1.2281845271677585,8.62,8620,Средняя,2
250000,Пионерская,Санкт-Петербург,1470,170,Универсальное помещение,https://spb.n1.ru/view/116063366/?open_card_kn,"Пионерская, 50, Санкт-Петербург, Россия","{'district': 'Петровский округ', 'lat': 59.9635302, 'lon': 30.2717962}",Петровский округ,59.9635302,30.2717962,"Санкт-Петербург, Крестовский остров",1.1441779911531633,3.56,3560,Большая,3
960000,Заречная,Санкт-Петербург,2000,480,Универсальное помещение,https://spb.n1.ru/view/113580047/?open_card_kn,"Заречная, 19 корп. 1, Санкт-Петербург, Россия","{'district': 'Торфяное', 'lat': 60.082999, 'lon': 30.3426243}",Торфяное,60.082999,30.3426243,"Санкт-Петербург, Парнас",1.8503393741469367,16.32,16320,Крупная,4
210000,Туристская,Санкт-Петербург,2333,90,Универсальное помещение,https://spb.n1.ru/view/113579890/?open_card_kn,"Туристская, 28 корп. 1, Санкт-Петербург, Россия","{'district': 'округ № 65', 'lat': 60.0012404, 'lon': 30.209274}",округ № 65,60.0012404,30.209274,"Санкт-Петербург, Беговая",1.5370781135161147,9.01,9010,Средняя,2
500000,Дачный проспект,Санкт-Петербург,1903,262,Универсальное помещение,https://spb.n1.ru/view/116041501/?open_card_kn,"Дачный проспект, 17 корп. 2, Санкт-Петербург, Россия","{'district': 'округ Дачное', 'lat': 59.8405279, 'lon': 30.2573751}",округ Дачное,59.8405279,30.2573751,"Санкт-Петербург, Проспект Ветеранов",0.35413103152186454,11.18,11180,Большая,3
230000,Предпортовая,Санкт-Петербург,1000,230,Универсальное помещение,https://spb.n1.ru/view/113898430/?open_card_kn,"Предпортовая, 3, Санкт-Петербург, Россия","{'district': 'округ Новоизмайловское', 'lat': 59.8319517, 'lon': 30.3027941}",округ Новоизмайловское,59.8319517,30.3027941,"Санкт-Петербург, Московская",2.469122290215357,11.76,11760,Большая,3
117370,Предпортовая,Санкт-Петербург,1100,106,Универсальное помещение,https://spb.n1.ru/view/113898140/?open_card_kn,"Предпортовая, 3, Санкт-Петербург, Россия","{'district': 'округ Новоизмайловское', 'lat': 59.8319517, 'lon': 30.3027941}",округ Новоизмайловское,59.8319517,30.3027941,"Санкт-Петербург, Московская",2.469122290215357,11.76,11760,Средняя,2
450000,Восстания,Санкт-Петербург,2848,158,Универсальное помещение,https://spb.n1.ru/view/115681401/?open_card_kn,"Восстания, 36, Санкт-Петербург, Россия","{'district': 'округ Смольнинское', 'lat': 59.9431388, 'lon': 30.3607874}",округ Смольнинское,59.9431388,30.3607874,"Санкт-Петербург, Чернышевская",0.16122831700109772,2.98,2980,Большая,3
340000,Кутузова набережная,Санкт-Петербург,3617,94,Универсальное помещение,https://spb.n1.ru/view/111284562/?open_card_kn,"Кутузова набережная, 24, Санкт-Петербург, Россия","{'district': 'Литейный округ', 'lat': 59.9498559, 'lon': 30.3488591}",Литейный округ,59.9498559,30.3488591,"Санкт-Петербург, Чернышевская",0.851866191008995,2.64,2640,Средняя,2
184000,Ленинский проспект,Санкт-Петербург,2000,92,Универсальное помещение,https://spb.n1.ru/view/113875246/?open_card_kn,"Ленинский проспект, 56, Санкт-Петербург, Россия","{'district': 'Южно-Приморский округ', 'lat': 59.8663957, 'lon': 30.1607296}",Южно-Приморский округ,59.8663957,30.1607296,"Санкт-Петербург, Автово",5.619590821462546,11.46,11460,Средняя,2
76140,Энергетиков проспект,Санкт-Петербург,1800,42,Универсальное помещение,https://spb.n1.ru/view/115297061/?open_card_kn,"Энергетиков проспект, 70 корп. 1, Санкт-Петербург, Россия","{'district': 'округ Большая Охта', 'lat': 59.9418245, 'lon': 30.4350342}",округ Большая Охта,59.9418245,30.4350342,"Санкт-Петербург, Ладожская",1.0783990785867967,7.08,7080,Маленькая,1
48000,Апрельская,Санкт-Петербург,1500,32,Универсальное помещение,https://spb.n1.ru/view/115296987/?open_card_kn,"Апрельская, 5, Санкт-Петербург, Россия","{'district': 'округ Полюстрово', 'lat': 59.9630542, 'lon': 30.4167546}",округ Полюстрово,59.9630542,30.4167546,"Санкт-Петербург, Площадь Ленина",3.47861617332273,6.68,6680,Маленькая,1
364350,Гороховая,Санкт-Петербург,3500,104,Универсальное помещение,https://spb.n1.ru/view/77897234/?open_card_kn,"Гороховая, 47в, Санкт-Петербург, Россия","{'district': 'округ № 78', 'lat': 59.9351686, 'lon': 30.3120841}",округ № 78,59.9351686,30.3120841,"Санкт-Петербург, Адмиралтейская",0.1770765798961663,0.32,320,Средняя,2
600000,Бабушкина,Санкт-Петербург,2000,300,Универсальное помещение,https://spb.n1.ru/view/115644030/?open_card_kn,"Бабушкина, 8 корп. 2, Санкт-Петербург, Россия","{'district': 'округ Невская застава', 'lat': 59.8945374, 'lon': 30.4268845}",округ Невская застава,59.8945374,30.4268845,"Санкт-Петербург, Елизаровская",0.2967365861657092,8.17,8170,Крупная,4
85000,Восстания,Санкт-Петербург,1148,74,Универсальное помещение,https://spb.n1.ru/view/116332519/?open_card_kn,"Восстания, 55б, Санкт-Петербург, Россия","{'district': 'округ Смольнинское', 'lat': 59.9431388, 'lon': 30.3607874}",округ Смольнинское,59.9431388,30.3607874,"Санкт-Петербург, Чернышевская",0.16122831700109772,2.98,2980,Средняя,2
125000,Челюскина,Санкт-Петербург,2059,60,Универсальное помещение,https://spb.n1.ru/view/115643994/?open_card_kn,"Челюскина, 8, Санкт-Петербург, Россия","{'district': 'округ Морской', 'lat': 59.9420677, 'lon': 30.1865424}",округ Морской,59.9420677,30.1865424,"Санкт-Петербург, Приморская",2.7698622581715133,6.84,6840,Средняя,2
93000,Бухарестская,Санкт-Петербург,2021,46,Универсальное помещение,https://spb.n1.ru/view/115643993/?open_card_kn,"Бухарестская, 67 корп. 1, Санкт-Петербург, Россия","{'district': 'Балканский округ', 'lat': 59.8290401, 'lon': 30.4218602}",Балканский округ,59.8290401,30.4218602,"Санкт-Петербург, Шушары",1.1656429302536107,13.65,13650,Маленькая,1
31400,Народная,Санкт-Петербург,1000,31,Универсальное помещение,https://spb.n1.ru/view/115289524/?open_card_kn,"Народная, 87, Санкт-Петербург, Россия","{'district': 'Народный округ', 'lat': 59.8842582, 'lon': 30.4860367}",Народный округ,59.8842582,30.4860367,"Санкт-Петербург, Пролетарская",2.2933927036323865,11.56,11560,Маленькая,1
122100,Днепропетровская,Санкт-Петербург,2750,44,Универсальное помещение,https://spb.n1.ru/view/115289454/?open_card_kn,"Днепропетровская, 7, Санкт-Петербург, Россия","{'district': 'округ Лиговка-Ямская', 'lat': 59.9191807, 'lon': 30.3614093}",округ Лиговка-Ямская,59.9191807,30.3614093,"Санкт-Петербург, Лиговский проспект",0.3800970872443527,3.59,3590,Маленькая,1
175000,Кушелевская дорога,Санкт-Петербург,2543,68,Универсальное помещение,https://spb.n1.ru/view/116325082/?open_card_kn,"Кушелевская дорога, 1 корп. 2, Санкт-Петербург, Россия","{'district': 'округ Пискарёвка', 'lat': 59.9898225, 'lon': 30.3730833}",округ Пискарёвка,59.9898225,30.3730833,"Санкт-Петербург, Площадь Мужества",1.1480227392908242,6.85,6850,Средняя,2
1100000,Большевиков проспект,Санкт-Петербург,4680,235,Универсальное помещение,https://spb.n1.ru/view/116306158/?open_card_kn,"Большевиков проспект, 3, Санкт-Петербург, Россия","{'district': 'округ № 54', 'lat': 59.8962178, 'lon': 30.4891271}",округ № 54,59.8962178,30.4891271,"Санкт-Петербург, Улица Дыбенко",1.2979929683547238,11.1,11100,Большая,3
200000,Шкапина,Санкт-Петербург,2259,88,Универсальное помещение,https://spb.n1.ru/view/116015276/?open_card_kn,"Шкапина, 15, Санкт-Петербург, Россия","{'district': 'Екатерингофский округ', 'lat': 59.9037894, 'lon': 30.2885942}",Екатерингофский округ,59.9037894,30.2885942,"Санкт-Петербург, Балтийская",0.7048497481682481,3.92,3920,Средняя,2
667000,Большевиков проспект,Санкт-Петербург,1684,396,Универсальное помещение,https://spb.n1.ru/view/115986897/?open_card_kn,"Большевиков проспект, 42 корп. 2, Санкт-Петербург, Россия","{'district': 'Народный округ', 'lat': 59.8784177, 'lon': 30.4812539}",Народный округ,59.8784177,30.4812539,"Санкт-Петербург, Пролетарская",1.5912791702751286,11.69,11690,Крупная,4
1500000,Невский проспект,Санкт-Петербург,3198,469,Универсальное помещение,https://spb.n1.ru/view/115830118/?open_card_kn,"Невский проспект, 137, Санкт-Петербург, Россия","{'district': 'округ Лиговка-Ямская', 'lat': 59.9265877, 'lon': 30.3763066}",округ Лиговка-Ямская,59.9265877,30.3763066,"Санкт-Петербург, Площадь Александра Невского-2",0.5209117900129269,3.98,3980,Крупная,4
164650,Литейный проспект,Санкт-Петербург,1850,89,Универсальное помещение,https://spb.n1.ru/view/115716865/?open_card_kn,"Литейный проспект, 41, Санкт-Петербург, Россия","{'district': 'Литейный округ', 'lat': 59.9394437, 'lon': 30.3478845}",Литейный округ,59.9394437,30.3478845,"Санкт-Петербург, Чернышевская",0.8699662694685604,2.21,2210,Средняя,2
149000,Ленсовета,Санкт-Петербург,827,180,Универсальное помещение,https://spb.n1.ru/view/115563178/?open_card_kn,"Ленсовета, 24, Санкт-Петербург, Россия","{'district': 'округ Звёздное', 'lat': 59.8502266, 'lon': 30.330459}",округ Звёздное,59.8502266,30.330459,"Санкт-Петербург, Московская",0.4780865420183354,9.8,9800,Большая,3
59200,Литейный проспект,Санкт-Петербург,1850,32,Универсальное помещение,https://spb.n1.ru/view/115559123/?open_card_kn,"Литейный проспект, 41, Санкт-Петербург, Россия","{'district': 'Литейный округ', 'lat': 59.9394437, 'lon': 30.3478845}",Литейный округ,59.9394437,30.3478845,"Санкт-Петербург, Чернышевская",0.8699662694685604,2.21,2210,Маленькая,1
183000,Манежная площадь,Санкт-Петербург,1000,183,Универсальное помещение,https://spb.n1.ru/view/115510587/?open_card_kn,"Манежная площадь, 5, Санкт-Петербург, Россия","{'district': 'Дворцовый округ', 'lat': 59.9362281, 'lon': 30.3406479}",Дворцовый округ,59.9362281,30.3406479,"Санкт-Петербург, Гостиный Двор",0.5778166315775033,1.8,1800,Большая,3
100000,Манежная площадь,Санкт-Петербург,1000,100,Универсальное помещение,https://spb.n1.ru/view/115510585/?open_card_kn,"Манежная площадь, 5, Санкт-Петербург, Россия","{'district': 'Дворцовый округ', 'lat': 59.9362281, 'lon': 30.3406479}",Дворцовый округ,59.9362281,30.3406479,"Санкт-Петербург, Гостиный Двор",0.5778166315775033,1.8,1800,Средняя,2
1200000,Выборгское шоссе,Санкт-Петербург,2500,480,Универсальное помещение,https://spb.n1.ru/view/114386290/?open_card_kn,"Выборгское шоссе, 12, Санкт-Петербург, Россия","{'district': 'округ Шувалово-Озерки', 'lat': 60.0372446, 'lon': 30.3179169}",округ Шувалово-Озерки,60.0372446,30.3179169,"Санкт-Петербург, Озерки",0.2034124228708919,11.12,11120,Крупная,4
62500,Предпортовая,Санкт-Петербург,1250,50,Универсальное помещение,https://spb.n1.ru/view/114317040/?open_card_kn,"Предпортовая, 3, Санкт-Петербург, Россия","{'district': 'округ Новоизмайловское', 'lat': 59.8319517, 'lon': 30.3027941}",округ Новоизмайловское,59.8319517,30.3027941,"Санкт-Петербург, Московская",2.469122290215357,11.76,11760,Средняя,2
129500,Литейный проспект,Санкт-Петербург,1850,70,Универсальное помещение,https://spb.n1.ru/view/109777386/?open_card_kn,"Литейный проспект, 41, Санкт-Петербург, Россия","{'district': 'Литейный округ', 'lat': 59.9394437, 'lon': 30.3478845}",Литейный округ,59.9394437,30.3478845,"Санкт-Петербург, Чернышевская",0.8699662694685604,2.21,2210,Средняя,2
50000,Литейный проспект,Санкт-Петербург,1250,40,Универсальное помещение,https://spb.n1.ru/view/107314896/?open_card_kn,"Литейный проспект, 41, Санкт-Петербург, Россия","{'district': 'Литейный округ', 'lat': 59.9394437, 'lon': 30.3478845}",Литейный округ,59.9394437,30.3478845,"Санкт-Петербург, Чернышевская",0.8699662694685604,2.21,2210,Маленькая,1
100000,Литейный проспект,Санкт-Петербург,1000,100,Универсальное помещение,https://spb.n1.ru/view/77304632/?open_card_kn,"Литейный проспект, 41, Санкт-Петербург, Россия","{'district': 'Литейный округ', 'lat': 59.9394437, 'lon': 30.3478845}",Литейный округ,59.9394437,30.3478845,"Санкт-Петербург, Чернышевская",0.8699662694685604,2.21,2210,Средняя,2
950000,Просвещения проспект,Санкт-Петербург,1938,490,Универсальное помещение,https://spb.n1.ru/view/115640787/?open_card_kn,"Просвещения проспект, 46 корп. 1, Санкт-Петербург, Россия","{'district': 'округ № 21', 'lat': 60.0342257, 'lon': 30.4258285}",округ № 21,60.0342257,30.4258285,"Санкт-Петербург, Гражданский проспект",0.42882061112738235,12.61,12610,Крупная,4
470550,Реки Мойки набережная,Санкт-Петербург,1500,313,Универсальное помещение,https://spb.n1.ru/view/116330675/?open_card_kn,"Реки Мойки набережная, 37, Санкт-Петербург, Россия","{'district': 'Дворцовый округ', 'lat': 59.9405116, 'lon': 30.3188813}",Дворцовый округ,59.9405116,30.3188813,"Санкт-Петербург, Адмиралтейская",0.5592292552738048,0.66,660,Крупная,4
1376452,Красногвардейский переулок,Санкт-Петербург,1199,1148,Универсальное помещение,https://spb.n1.ru/view/116330655/?open_card_kn,"Красногвардейский переулок, 23, Санкт-Петербург, Россия","{'district': 'округ Ланское', 'lat': 59.9839064, 'lon': 30.3198864}",округ Ланское,59.9839064,30.3198864,"Санкт-Петербург, Чёрная речка",1.0743411524432362,5.21,5210,Очень крупная,5
80000,Димитрова,Санкт-Петербург,1197,66,Универсальное помещение,https://spb.n1.ru/view/114575872/?open_card_kn,"Димитрова, 2, Санкт-Петербург, Россия","{'district': 'Георгиевский округ', 'lat': 59.8481846, 'lon': 30.3917555}",Георгиевский округ,59.8481846,30.3917555,"Санкт-Петербург, Проспект Славы",0.949659055276811,10.99,10990,Средняя,2
711000,Савушкина,Санкт-Петербург,1800,395,Универсальное помещение,https://spb.n1.ru/view/113132866/?open_card_kn,"Савушкина, 119, Санкт-Петербург, Россия","{'district': 'округ № 65', 'lat': 59.9866087, 'lon': 30.2262167}",округ № 65,59.9866087,30.2262167,"Санкт-Петербург, Беговая",1.3258844551877647,7.15,7150,Крупная,4
195000,Витебский проспект,Санкт-Петербург,2215,88,Универсальное помещение,https://spb.n1.ru/view/115285932/?open_card_kn,"Витебский проспект, 101 корп. 1, Санкт-Петербург, Россия","{'district': 'Район не найден', 'lat': 59.8146918, 'lon': 30.3802241}",Район не найден,59.8146918,30.3802241,"Санкт-Петербург, Купчино",1.7045714371207024,14.26,14260,Средняя,2
439600,Литейный проспект,Санкт-Петербург,2854,154,Универсальное помещение,https://spb.n1.ru/view/115285931/?open_card_kn,"Литейный проспект, 48, Санкт-Петербург, Россия","{'district': 'Литейный округ', 'lat': 59.9370444, 'lon': 30.3497497}",Литейный округ,59.9370444,30.3497497,"Санкт-Петербург, Маяковская",0.6731570583374069,2.3,2300,Большая,3
550000,Жуковского,Санкт-Петербург,3235,170,Универсальное помещение,https://spb.n1.ru/view/115285925/?open_card_kn,"Жуковского, 22, Санкт-Петербург, Россия","{'district': 'Литейный округ', 'lat': 59.9362712, 'lon': 30.3575662}",Литейный округ,59.9362712,30.3575662,"Санкт-Петербург, Маяковская",0.5390725918423658,2.74,2740,Большая,3
40000,Архитектора Белова,Санкт-Петербург,800,50,Универсальное помещение,https://spb.n1.ru/view/115285838/?open_card_kn,"Архитектора Белова, 9, Санкт-Петербург, Россия","{'district': 'Торфяное', 'lat': 60.0684807, 'lon': 30.3160101}",Торфяное,60.0684807,30.3160101,"Санкт-Петербург, Парнас",1.0101765948170078,14.6,14600,Средняя,2
280000,Большеохтинский проспект,Санкт-Петербург,1400,200,Универсальное помещение,https://spb.n1.ru/view/115285831/?open_card_kn,"Большеохтинский проспект, 15 корп. 2, Санкт-Петербург, Россия","{'district': 'округ Большая Охта', 'lat': 59.9447638, 'lon': 30.4102351}",округ Большая Охта,59.9447638,30.4102351,"Санкт-Петербург, Новочеркасская",1.7580555233535828,5.74,5740,Большая,3
214360,Галерный проезд,Санкт-Петербург,2300,93,Универсальное помещение,https://spb.n1.ru/view/115996153/?open_card_kn,"Галерный проезд, 1 корп. 2, Санкт-Петербург, Россия","{'district': 'округ Гавань', 'lat': 59.9346635, 'lon': 30.2266107}",округ Гавань,59.9346635,30.2266107,"Санкт-Петербург, Приморская",1.6008079472020618,4.6,4600,Средняя,2
15000,Академика Лебедева,Санкт-Петербург,600,25,Универсальное помещение,https://spb.n1.ru/view/77790253/?open_card_kn,"Академика Лебедева, 14/2, Санкт-Петербург, Россия","{'district': 'Финляндский округ', 'lat': 59.9626328, 'lon': 30.3554183}",Финляндский округ,59.9626328,30.3554183,"Санкт-Петербург, Площадь Ленина",0.643146909408435,3.83,3830,Маленькая,1
144000,Народная,Санкт-Петербург,1800,80,Универсальное помещение,https://spb.n1.ru/view/113128812/?open_card_kn,"Народная, 5, Санкт-Петербург, Россия","{'district': 'Народный округ', 'lat': 59.8787074, 'lon': 30.4615164}",Народный округ,59.8787074,30.4615164,"Санкт-Петербург, Ломоносовская",1.1034152131181776,10.78,10780,Средняя,2
239760,Большеохтинский проспект,Санкт-Петербург,1200,199,Универсальное помещение,https://spb.n1.ru/view/77786138/?open_card_kn,"Большеохтинский проспект, 15 корп. 2, Санкт-Петербург, Россия","{'district': 'округ Большая Охта', 'lat': 59.9447638, 'lon': 30.4102351}",округ Большая Охта,59.9447638,30.4102351,"Санкт-Петербург, Новочеркасская",1.7580555233535828,5.74,5740,Большая,3
100000,Муринская дорога,Санкт-Петербург,988,101,Универсальное помещение,https://spb.n1.ru/view/116328276/?open_card_kn,"Муринская дорога, 11 корп. 3, Санкт-Петербург, Россия","{'district': 'округ Полюстрово', 'lat': 60.0051571, 'lon': 30.4848539}",округ Полюстрово,60.0051571,30.4848539,"Санкт-Петербург, Гражданский проспект",4.96479671482425,12.4,12400,Средняя,2
49980,Осипенко,Санкт-Петербург,1666,30,Универсальное помещение,https://spb.n1.ru/view/116327781/?open_card_kn,"Осипенко, 3а, Санкт-Петербург, Россия","{'district': 'округ Пороховые', 'lat': 59.9466116, 'lon': 30.4839606}",округ Пороховые,59.9466116,30.4839606,"Санкт-Петербург, Ладожская",2.941956297586587,9.85,9850,Маленькая,1
500000,Невский проспект,Санкт-Петербург,3759,133,Универсальное помещение,https://spb.n1.ru/view/115990503/?open_card_kn,"Невский проспект, 15, Санкт-Петербург, Россия","{'district': 'округ № 78', 'lat': 59.9362585, 'lon': 30.318024}",округ № 78,59.9362585,30.318024,"Санкт-Петербург, Адмиралтейская",0.17783374931090454,0.54,540,Большая,3
115000,Измайловский проспект,Санкт-Петербург,1121,102,Универсальное помещение,https://spb.n1.ru/view/114951798/?open_card_kn,"Измайловский проспект, 3, Санкт-Петербург, Россия","{'district': 'округ Измайловское', 'lat': 59.9181798, 'lon': 30.3071434}",округ Измайловское,59.9181798,30.3071434,"Санкт-Петербург, Технологический институт-1",0.6632088033314274,2.15,2150,Средняя,2
700000,18-я В.О. линия,Санкт-Петербург,8036,87,Универсальное помещение,https://spb.n1.ru/view/115989488/?open_card_kn,"18-я В.О. линия, 9, Санкт-Петербург, Россия","{'district': 'округ № 7', 'lat': 59.9406703, 'lon': 30.2844298}",округ № 7,59.9406703,30.2844298,"Санкт-Петербург, Василеостровская",0.40416630958825417,1.4,1400,Средняя,2
195000,Энгельса проспект,Санкт-Петербург,1961,99,Универсальное помещение,https://spb.n1.ru/view/112336013/?open_card_kn,"Энгельса проспект, 29, Санкт-Петербург, Россия","{'district': 'округ Светлановское', 'lat': 60.0067246, 'lon': 30.3277454}",округ Светлановское,60.0067246,30.3277454,"Санкт-Петербург, Удельная",1.2998430405532375,7.79,7790,Средняя,2
196750,Ипподромный переулок,Санкт-Петербург,2500,78,Универсальное помещение,https://spb.n1.ru/view/113516902/?open_card_kn,"Ипподромный переулок, 1 корп. 1, Санкт-Петербург, Россия","{'district': 'округ Комендантский аэродром', 'lat': 60.0006369, 'lon': 30.3102076}",округ Комендантский аэродром,60.0006369,30.3102076,"Санкт-Петербург, Пионерская",0.7704620768756941,7.03,7030,Средняя,2
250000,Ленсовета,Санкт-Петербург,1388,180,Универсальное помещение,https://spb.n1.ru/view/112335898/?open_card_kn,"Ленсовета, 10, Санкт-Петербург, Россия","{'district': 'округ Московская застава', 'lat': 59.8589844, 'lon': 30.3299625}",округ Московская застава,59.8589844,30.3299625,"Санкт-Петербург, Московская",0.8982457503381919,8.83,8830,Большая,3
155000,Комендантский проспект,Санкт-Петербург,1026,151,Универсальное помещение,https://spb.n1.ru/view/108546946/?open_card_kn,"Комендантский проспект, 51 корп. 1, Санкт-Петербург, Россия","{'district': 'округ Коломяги', 'lat': 60.0388133, 'lon': 30.223171}",округ Коломяги,60.0388133,30.223171,"Санкт-Петербург, Комендантский проспект",3.9007895823865644,12.25,12250,Большая,3
171000,Малая Митрофаньевская,Санкт-Петербург,1819,94,Универсальное помещение,https://spb.n1.ru/view/110826045/?open_card_kn,"Малая Митрофаньевская, 8 корп. 1, Санкт-Петербург, Россия","{'district': 'округ Измайловское', 'lat': 59.8963598, 'lon': 30.310854}",округ Измайловское,59.8963598,30.310854,"Санкт-Петербург, Московские Ворота",0.6320021927671687,4.59,4590,Средняя,2
85000,Челюскина,Санкт-Петербург,2125,40,Универсальное помещение,https://spb.n1.ru/view/115630947/?open_card_kn,"Челюскина, 6, Санкт-Петербург, Россия","{'district': 'округ Морской', 'lat': 59.9416555, 'lon': 30.1906742}",округ Морской,59.9416555,30.1906742,"Санкт-Петербург, Приморская",2.5614856036706612,6.61,6610,Маленькая,1
266800,Канала Грибоедова набережная,Санкт-Петербург,2300,116,Универсальное помещение,https://spb.n1.ru/view/116326137/?open_card_kn,"Канала Грибоедова набережная, 12, Санкт-Петербург, Россия","{'district': 'Дворцовый округ', 'lat': 59.9362213, 'lon': 30.3282657}",Дворцовый округ,59.9362213,30.3282657,"Санкт-Петербург, Невский проспект",0.20002425978103558,1.11,1110,Средняя,2
450000,Казанская,Санкт-Петербург,2368,190,Универсальное помещение,https://spb.n1.ru/view/114945752/?open_card_kn,"Казанская, 40, Санкт-Петербург, Россия","{'district': 'Сенной округ', 'lat': 59.9289586, 'lon': 30.3124795}",Сенной округ,59.9289586,30.3124795,"Санкт-Петербург, Садовая",0.3796811605232781,0.98,980,Большая,3
250000,Восстания,Санкт-Петербург,1275,196,Универсальное помещение,https://spb.n1.ru/view/77324288/?open_card_kn,"Восстания, 53, Санкт-Петербург, Россия","{'district': 'округ Смольнинское', 'lat': 59.9428552, 'lon': 30.3610258}",округ Смольнинское,59.9428552,30.3610258,"Санкт-Петербург, Чернышевская",0.19540785899804528,2.99,2990,Большая,3
100000,Ломоносова,Санкт-Петербург,1000,100,Универсальное помещение,https://spb.n1.ru/view/77318351/?open_card_kn,"Ломоносова, 12/66, Санкт-Петербург, Россия","{'district': 'Владимирский округ', 'lat': 59.9281844, 'lon': 30.3370759}",Владимирский округ,59.9281844,30.3370759,"Санкт-Петербург, Достоевская",0.5276271604793068,1.9,1900,Средняя,2
112957,Уральская,Санкт-Петербург,1043,108,Универсальное помещение,https://spb.n1.ru/view/115276324/?open_card_kn,"Уральская, 19 корп. 8, Санкт-Петербург, Россия","{'district': 'округ Остров Декабристов', 'lat': 59.9550413, 'lon': 30.2553369}",округ Остров Декабристов,59.9550413,30.2553369,"Санкт-Петербург, Приморская",1.3651632488461782,3.56,3560,Средняя,2
90000,Гжатская,Санкт-Петербург,2000,45,Универсальное помещение,https://spb.n1.ru/view/77301321/?open_card_kn,"Гжатская, 22 корп. 2, Санкт-Петербург, Россия","{'district': 'округ Академическое', 'lat': 60.0111858, 'lon': 30.3889959}",округ Академическое,60.0111858,30.3889959,"Санкт-Петербург, Академическая",0.40860776800322196,9.36,9360,Маленькая,1
110000,Ветеранов проспект,Санкт-Петербург,1746,63,Универсальное помещение,https://spb.n1.ru/view/77300004/?open_card_kn,"Ветеранов проспект, 194, Санкт-Петербург, Россия","{'district': 'округ Сосновая поляна', 'lat': 59.8343207, 'lon': 30.1147634}",округ Сосновая поляна,59.8343207,30.1147634,"Санкт-Петербург, Проспект Ветеранов",7.6893331889682885,15.81,15810,Средняя,2
105000,Просвещения проспект,Санкт-Петербург,1500,70,Универсальное помещение,https://spb.n1.ru/view/77294826/?open_card_kn,"Просвещения проспект, 33 корп. 1, Санкт-Петербург, Россия","{'district': 'округ № 21', 'lat': 60.0342257, 'lon': 30.4258285}",округ № 21,60.0342257,30.4258285,"Санкт-Петербург, Гражданский проспект",0.42882061112738235,12.61,12610,Средняя,2
606528,Транспортный переулок,Санкт-Петербург,864,702,Универсальное помещение,https://spb.n1.ru/view/77292667/?open_card_kn,"Транспортный переулок, 3, Санкт-Петербург, Россия","{'district': 'округ Лиговка-Ямская', 'lat': 59.92041, 'lon': 30.3576952}",округ Лиговка-Ямская,59.92041,30.3576952,"Санкт-Петербург, Лиговский проспект",0.1375833232708267,3.34,3340,Очень крупная,5
88407,Уральская,Санкт-Петербург,893,99,Универсальное помещение,https://spb.n1.ru/view/115276300/?open_card_kn,"Уральская, 19 корп. 8, Санкт-Петербург, Россия","{'district': 'округ Остров Декабристов', 'lat': 59.9550413, 'lon': 30.2553369}",округ Остров Декабристов,59.9550413,30.2553369,"Санкт-Петербург, Приморская",1.3651632488461782,3.56,3560,Средняя,2
364896,Уральская,Санкт-Петербург,1120,325,Универсальное помещение,https://spb.n1.ru/view/115276274/?open_card_kn,"Уральская, 19 корп. 8, Санкт-Петербург, Россия","{'district': 'округ Остров Декабристов', 'lat': 59.9550413, 'lon': 30.2553369}",округ Остров Декабристов,59.9550413,30.2553369,"Санкт-Петербург, Приморская",1.3651632488461782,3.56,3560,Крупная,4
95000,Клинский проспект,Санкт-Петербург,995,95,Универсальное помещение,https://spb.n1.ru/view/115625242/?open_card_kn,"Клинский проспект, 23, Санкт-Петербург, Россия","{'district': 'округ Семёновский', 'lat': 59.9146518, 'lon': 30.320796}",округ Семёновский,59.9146518,30.320796,"Санкт-Петербург, Технологический институт-2",0.20401394335874745,2.64,2640,Средняя,2
592128,Салова,Санкт-Петербург,960,616,Универсальное помещение,https://spb.n1.ru/view/113855901/?open_card_kn,"Салова, 45н, Санкт-Петербург, Россия","{'district': 'округ Волковское', 'lat': 59.8843396, 'lon': 30.3679071}",округ Волковское,59.8843396,30.3679071,"Санкт-Петербург, Бухарестская",0.1290153716841518,6.79,6790,Очень крупная,5
190000,Большая Конюшенная,Санкт-Петербург,2235,85,Универсальное помещение,https://spb.n1.ru/view/115975766/?open_card_kn,"Большая Конюшенная, 5, Санкт-Петербург, Россия","{'district': 'Дворцовый округ', 'lat': 59.9404874, 'lon': 30.3218408}",Дворцовый округ,59.9404874,30.3218408,"Санкт-Петербург, Адмиралтейская",0.6402786977094016,0.81,810,Средняя,2
522960,Пироговская набережная,Санкт-Петербург,1200,435,Универсальное помещение,https://spb.n1.ru/view/116320396/?open_card_kn,"Пироговская набережная, 17, Санкт-Петербург, Россия","{'district': 'округ Сампсониевское', 'lat': 59.9638923, 'lon': 30.3383378}",округ Сампсониевское,59.9638923,30.3383378,"Санкт-Петербург, Выборгская",0.9474091908134498,3.38,3380,Крупная,4
1827500,Нахимова,Санкт-Петербург,1700,1075,Универсальное помещение,https://spb.n1.ru/view/116320377/?open_card_kn,"Нахимова, 26, Санкт-Петербург, Россия","{'district': 'округ Гавань', 'lat': 59.9388486, 'lon': 30.2212549}",округ Гавань,59.9388486,30.2212549,"Санкт-Петербург, Приморская",1.3046771646660016,4.89,4890,Очень крупная,5
86900,Новокузнецкая,Санкт-Петербург,2348,37,Универсальное помещение,https://spb.n1.ru/view/116320366/?open_card_kn,"Новокузнецкая, 8, Санкт-Петербург, Россия","{'district': 'Михайловка', 'lat': 60.0689579, 'lon': 30.2550454}",Михайловка,60.0689579,30.2550454,"Санкт-Петербург, Парнас",4.383679416492057,14.95,14950,Маленькая,1
133000,Новокузнецкая,Санкт-Петербург,1900,70,Универсальное помещение,https://spb.n1.ru/view/116320288/?open_card_kn,"Новокузнецкая, 8, Санкт-Петербург, Россия","{'district': 'Михайловка', 'lat': 60.0689579, 'lon': 30.2550454}",Михайловка,60.0689579,30.2550454,"Санкт-Петербург, Парнас",4.383679416492057,14.95,14950,Средняя,2
65000,Алтайская,Санкт-Петербург,1144,56,Универсальное помещение,https://spb.n1.ru/view/109505647/?open_card_kn,"Алтайская, 23, Санкт-Петербург, Россия","{'district': 'округ Звёздное', 'lat': 59.8491488, 'lon': 30.3289751}",округ Звёздное,59.8491488,30.3289751,"Санкт-Петербург, Московская",0.46780569864840704,9.91,9910,Средняя,2
1379000,Херсонская,Санкт-Петербург,3500,394,Универсальное помещение,https://spb.n1.ru/view/115619181/?open_card_kn,"Херсонская, 39, Санкт-Петербург, Россия","{'district': 'округ Смольнинское', 'lat': 59.9271039, 'lon': 30.3831682}",округ Смольнинское,59.9271039,30.3831682,"Санкт-Петербург, Площадь Александра Невского-1",0.33871152327897136,4.33,4330,Крупная,4
174000,Челюскина,Санкт-Петербург,3000,58,Универсальное помещение,https://spb.n1.ru/view/113105106/?open_card_kn,"Челюскина, 4, Санкт-Петербург, Россия","{'district': 'округ Морской', 'lat': 59.9412598, 'lon': 30.1936516}",округ Морской,59.9412598,30.1936516,"Санкт-Петербург, Приморская",2.4179419332486205,6.44,6440,Средняя,2
228000,Николая Рубцова,Санкт-Петербург,4000,57,Универсальное помещение,https://spb.n1.ru/view/116318250/?open_card_kn,"Николая Рубцова, 9, Санкт-Петербург, Россия","{'district': 'Торфяное', 'lat': 60.076879, 'lon': 30.341122}",Торфяное,60.076879,30.341122,"Санкт-Петербург, Парнас",1.175547776983287,15.63,15630,Средняя,2
75000,Федора Абрамова,Санкт-Петербург,6250,12,Универсальное помещение,https://spb.n1.ru/view/116318237/?open_card_kn,"Федора Абрамова, 8, Санкт-Петербург, Россия","{'district': 'Торфяное', 'lat': 60.0755162, 'lon': 30.339498}",Торфяное,60.0755162,30.339498,"Санкт-Петербург, Парнас",1.003022754429645,15.47,15470,Маленькая,1
615560,Дегтярная,Санкт-Петербург,1399,440,Универсальное помещение,https://spb.n1.ru/view/116318235/?open_card_kn,"Дегтярная, 5, Санкт-Петербург, Россия","{'district': 'округ Смольнинское', 'lat': 59.931766, 'lon': 30.3715672}",округ Смольнинское,59.931766,30.3715672,"Санкт-Петербург, Площадь Восстания",0.62429354182142,3.58,3580,Крупная,4
50000,Наставников проспект,Санкт-Петербург,846,59,Универсальное помещение,https://spb.n1.ru/view/116318200/?open_card_kn,"Наставников проспект, 36 корп. 1, Санкт-Петербург, Россия","{'district': 'округ Пороховые', 'lat': 59.9377766, 'lon': 30.4883972}",округ Пороховые,59.9377766,30.4883972,"Санкт-Петербург, Проспект Большевиков",2.3351197107701256,10.05,10050,Средняя,2
80000,Измайловский проспект,Санкт-Петербург,1142,70,Универсальное помещение,https://spb.n1.ru/view/116318174/?open_card_kn,"Измайловский проспект, 11, Санкт-Петербург, Россия","{'district': 'округ Измайловское', 'lat': 59.9148387, 'lon': 30.3070454}",округ Измайловское,59.9148387,30.3070454,"Санкт-Петербург, Технологический институт-1",0.6401062593091049,2.53,2530,Средняя,2
65000,Вишерская,Санкт-Петербург,1511,43,Универсальное помещение,https://spb.n1.ru/view/116318173/?open_card_kn,"Вишерская, 22, Санкт-Петербург, Россия","{'district': 'Район не найден', 'lat': 59.8040681, 'lon': 30.3752333}",Район не найден,59.8040681,30.3752333,"Санкт-Петербург, Купчино",2.8649537052085585,15.33,15330,Маленькая,1
410850,Уральская,Санкт-Петербург,4500,91,Универсальное помещение,https://spb.n1.ru/view/116318133/?open_card_kn,"Уральская, 25, Санкт-Петербург, Россия","{'district': 'округ Остров Декабристов', 'lat': 59.9567663, 'lon': 30.2491175}",округ Остров Декабристов,59.9567663,30.2491175,"Санкт-Петербург, Приморская",1.2247088135383422,3.96,3960,Средняя,2
680000,Декабристов,Санкт-Петербург,1942,350,Универсальное помещение,https://spb.n1.ru/view/116318044/?open_card_kn,"Декабристов, 31, Санкт-Петербург, Россия","{'district': 'округ Коломна', 'lat': 59.9258251, 'lon': 30.2920188}",округ Коломна,59.9258251,30.2920188,"Санкт-Петербург, Садовая",1.4417117795284082,1.6,1600,Крупная,4
80000,Херсонская,Санкт-Петербург,2222,36,Универсальное помещение,https://spb.n1.ru/view/116318024/?open_card_kn,"Херсонская, 43/12, Санкт-Петербург, Россия","{'district': 'округ Смольнинское', 'lat': 59.9267567, 'lon': 30.384904}",округ Смольнинское,59.9267567,30.384904,"Санкт-Петербург, Площадь Александра Невского-1",0.2811069419414303,4.43,4430,Маленькая,1
402450,Новолитовская,Санкт-Петербург,1328,303,Универсальное помещение,https://spb.n1.ru/view/116318023/?open_card_kn,"Новолитовская, 15, Санкт-Петербург, Россия","{'district': 'округ Сампсониевское', 'lat': 59.9812029, 'lon': 30.3587712}",округ Сампсониевское,59.9812029,30.3587712,"Санкт-Петербург, Лесная",0.8973792678426272,5.62,5620,Крупная,4
104491,Парашютная,Санкт-Петербург,2700,38,Универсальное помещение,https://spb.n1.ru/view/115973208/?open_card_kn,"Парашютная, 77 корп. 1, Санкт-Петербург, Россия","{'district': 'округ Комендантский аэродром', 'lat': 60.0165988, 'lon': 30.2831775}",округ Комендантский аэродром,60.0165988,30.2831775,"Санкт-Петербург, Комендантский проспект",1.631246685603059,8.93,8930,Маленькая,1
116800,Наставников проспект,Санкт-Петербург,1600,73,Универсальное помещение,https://spb.n1.ru/view/115617044/?open_card_kn,"Наставников проспект, 47 корп. 1, Санкт-Петербург, Россия","{'district': 'округ Пороховые', 'lat': 59.9377766, 'lon': 30.4883972}",округ Пороховые,59.9377766,30.4883972,"Санкт-Петербург, Проспект Большевиков",2.3351197107701256,10.05,10050,Средняя,2
1200000,Владимирский проспект,Санкт-Петербург,2159,555,Универсальное помещение,https://spb.n1.ru/view/113498269/?open_card_kn,"Владимирский проспект, 23, Санкт-Петербург, Россия","{'district': 'Владимирский округ', 'lat': 59.9281668, 'lon': 30.3461948}",Владимирский округ,59.9281668,30.3461948,"Санкт-Петербург, Достоевская",0.019791863388888734,2.34,2340,Крупная,4
299000,Садовая,Санкт-Петербург,1758,170,Универсальное помещение,https://spb.n1.ru/view/115273288/?open_card_kn,"Садовая, 88, Санкт-Петербург, Россия","{'district': 'округ Коломна', 'lat': 59.9186681, 'lon': 30.2917776}",округ Коломна,59.9186681,30.2917776,"Санкт-Петербург, Балтийская",1.3429065598580359,2.3,2300,Большая,3
400000,Караванная,Санкт-Петербург,4123,97,Универсальное помещение,https://spb.n1.ru/view/114936587/?open_card_kn,"Караванная, 24, Санкт-Петербург, Россия","{'district': 'Дворцовый округ', 'lat': 59.9341601, 'lon': 30.3428087}",Дворцовый округ,59.9341601,30.3428087,"Санкт-Петербург, Гостиный Двор",0.66078911291297,1.95,1950,Средняя,2
340000,Ивановская,Санкт-Петербург,1789,190,Универсальное помещение,https://spb.n1.ru/view/114545723/?open_card_kn,"Ивановская, 13, Санкт-Петербург, Россия","{'district': 'Ивановский округ', 'lat': 59.8750474, 'lon': 30.4418316}",Ивановский округ,59.8750474,30.4418316,"Санкт-Петербург, Ломоносовская",0.25919891406326306,10.2,10200,Большая,3
88000,Ветеранов проспект,Санкт-Петербург,1600,55,Универсальное помещение,https://spb.n1.ru/view/115970332/?open_card_kn,"Ветеранов проспект, 133 корп. 1, Санкт-Петербург, Россия","{'district': 'округ Ульянка', 'lat': 59.8335415, 'lon': 30.2174823}",округ Ульянка,59.8335415,30.2174823,"Санкт-Петербург, Проспект Ветеранов",2.115934529802192,12.66,12660,Средняя,2
150000,Обуховской Обороны проспект,Санкт-Петербург,1879,79,Универсальное помещение,https://spb.n1.ru/view/115272373/?open_card_kn,"Обуховской Обороны проспект, 93, Санкт-Петербург, Россия","{'district': 'округ Невская застава', 'lat': 59.8985944, 'lon': 30.4296312}",округ Невская застава,59.8985944,30.4296312,"Санкт-Петербург, Елизаровская",0.3888100642488203,8.04,8039,Средняя,2
720000,Рубинштейна,Санкт-Петербург,4500,160,Универсальное помещение,https://spb.n1.ru/view/115970221/?open_card_kn,"Рубинштейна, 9/3, Санкт-Петербург, Россия","{'district': 'Владимирский округ', 'lat': 59.9305379, 'lon': 30.3444514}",Владимирский округ,59.9305379,30.3444514,"Санкт-Петербург, Достоевская",0.2913391082889736,2.15,2150,Большая,3
270000,Лиговский проспект,Санкт-Петербург,3461,78,Универсальное помещение,https://spb.n1.ru/view/115970217/?open_card_kn,"Лиговский проспект, 25, Санкт-Петербург, Россия","{'district': 'округ Смольнинское', 'lat': 59.9345069, 'lon': 30.3627802}",округ Смольнинское,59.9345069,30.3627802,"Санкт-Петербург, Площадь Восстания",0.37003457419936175,3.05,3050,Средняя,2
100000,Помяловского,Санкт-Петербург,3333,30,Универсальное помещение,https://spb.n1.ru/view/115272372/?open_card_kn,"Помяловского, 3, Санкт-Петербург, Россия","{'district': 'округ Малая Охта', 'lat': 59.937989, 'lon': 30.4057032}",округ Малая Охта,59.937989,30.4057032,"Санкт-Петербург, Новочеркасская",1.0525212819864318,5.43,5430,Маленькая,1
90000,Уральская,Санкт-Петербург,1698,53,Универсальное помещение,https://spb.n1.ru/view/115613438/?open_card_kn,"Уральская, 21 корп. 1, Санкт-Петербург, Россия","{'district': 'округ Остров Декабристов', 'lat': 59.9550413, 'lon': 30.2553369}",округ Остров Декабристов,59.9550413,30.2553369,"Санкт-Петербург, Приморская",1.3651632488461782,3.56,3560,Средняя,2
190000,Кондратьевский проспект,Санкт-Петербург,3084,61,Универсальное помещение,https://spb.n1.ru/view/116313448/?open_card_kn,"Кондратьевский проспект, 68 корп. 4, Санкт-Петербург, Россия","{'district': 'округ Пискарёвка', 'lat': 59.9838062, 'lon': 30.398712}",округ Пискарёвка,59.9838062,30.398712,"Санкт-Петербург, Площадь Мужества",2.507637366916856,7.21,7210,Средняя,2
112000,Кузнецовская,Санкт-Петербург,1600,70,Универсальное помещение,https://spb.n1.ru/view/116313400/?open_card_kn,"Кузнецовская, 22, Санкт-Петербург, Россия","{'district': 'округ Новоизмайловское', 'lat': 59.8718938, 'lon': 30.3092784}",округ Новоизмайловское,59.8718938,30.3092784,"Санкт-Петербург, Парк Победы (закрыта)",0.9167402109166726,7.31,7310,Средняя,2
214500,Дыбенко,Санкт-Петербург,1300,165,Универсальное помещение,https://spb.n1.ru/view/115967485/?open_card_kn,"Дыбенко, 8 корп. 1, Санкт-Петербург, Россия","{'district': 'округ № 54', 'lat': 59.9101431, 'lon': 30.4976398}",округ № 54,59.9101431,30.4976398,"Санкт-Петербург, Улица Дыбенко",0.8537797861101792,11.0,11000,Большая,3
95000,Загородный проспект,Санкт-Петербург,1221,77,Универсальное помещение,https://spb.n1.ru/view/116311926/?open_card_kn,"Загородный проспект, 34, Санкт-Петербург, Россия","{'district': 'Владимирский округ', 'lat': 59.924206, 'lon': 30.3386955}",Владимирский округ,59.924206,30.3386955,"Санкт-Петербург, Звенигородская",0.26162898959311387,2.24,2240,Средняя,2
80000,Энгельса проспект,Санкт-Петербург,2500,32,Универсальное помещение,https://spb.n1.ru/view/111638918/?open_card_kn,"Энгельса проспект, 29, Санкт-Петербург, Россия","{'district': 'округ Светлановское', 'lat': 60.0067246, 'lon': 30.3277454}",округ Светлановское,60.0067246,30.3277454,"Санкт-Петербург, Удельная",1.2998430405532375,7.79,7790,Маленькая,1
225281,проезд Толубеевский,Санкт-Петербург,1600,140,Универсальное помещение,https://spb.n1.ru/view/109927874/?open_card_kn,"проезд Толубеевский, 34 корп. 3, Санкт-Петербург, Россия","{'district': 'Торфяное', 'lat': 60.0709163, 'lon': 30.3453021}",Торфяное,60.0709163,30.3453021,"Санкт-Петербург, Парнас",0.7701081455633139,15.0,15000,Большая,3
64880,Левашовский проспект,Санкт-Петербург,2000,32,Универсальное помещение,https://spb.n1.ru/view/111241553/?open_card_kn,"Левашовский проспект, 12, Санкт-Петербург, Россия","{'district': 'округ Чкаловское', 'lat': 59.9659063, 'lon': 30.2927489}",округ Чкаловское,59.9659063,30.2927489,"Санкт-Петербург, Чкаловская",0.5505870400668748,3.29,3290,Маленькая,1
140000,Малая Бухарестская,Санкт-Петербург,1734,80,Универсальное помещение,https://spb.n1.ru/view/116309687/?open_card_kn,"Малая Бухарестская, 12, Санкт-Петербург, Россия","{'district': 'Александровский округ', 'lat': 59.8471351, 'lon': 30.4177942}",Александровский округ,59.8471351,30.4177942,"Санкт-Петербург, Дунайская",0.878377909760556,11.78,11780,Средняя,2
110000,Кронверкский проспект,Санкт-Петербург,1193,92,Универсальное помещение,https://spb.n1.ru/view/116309626/?open_card_kn,"Кронверкский проспект, 21/2, Санкт-Петербург, Россия","{'district': 'округ Кронверкское', 'lat': 59.9566826, 'lon': 30.3118767}",округ Кронверкское,59.9566826,30.3118767,"Санкт-Петербург, Горьковская",0.3915736009494123,2.14,2140,Средняя,2
34000,Двинская,Санкт-Петербург,1000,34,Универсальное помещение,https://spb.n1.ru/view/109492879/?open_card_kn,"Двинская, 10, Санкт-Петербург, Россия","{'district': 'округ Морские ворота', 'lat': 59.9089609, 'lon': 30.2489394}",округ Морские ворота,59.9089609,30.2489394,"Санкт-Петербург, Нарвская",1.689039169794414,4.61,4610,Маленькая,1
219000,Академика Константинова,Санкт-Петербург,3000,73,Универсальное помещение,https://spb.n1.ru/view/116309612/?open_card_kn,"Академика Константинова, 1 корп. 1, Санкт-Петербург, Россия","{'district': 'округ Академическое', 'lat': 60.0210713, 'lon': 30.3816388}",округ Академическое,60.0210713,30.3816388,"Санкт-Петербург, Академическая",1.212072673195592,10.16,10160,Средняя,2
150000,Савушкина,Санкт-Петербург,2018,74,Универсальное помещение,https://spb.n1.ru/view/116308669/?open_card_kn,"Савушкина, 16, Санкт-Петербург, Россия","{'district': 'округ Ланское', 'lat': 59.9855717, 'lon': 30.2941735}",округ Ланское,59.9855717,30.2941735,"Санкт-Петербург, Чёрная речка",0.37091357824852605,5.42,5420,Средняя,2
113200,Полярников,Санкт-Петербург,1099,103,Универсальное помещение,https://spb.n1.ru/view/116308615/?open_card_kn,"Полярников, 9, Санкт-Петербург, Россия","{'district': 'Ивановский округ', 'lat': 59.8788232, 'lon': 30.4362921}",Ивановский округ,59.8788232,30.4362921,"Санкт-Петербург, Ломоносовская",0.35282594167297093,9.68,9680,Средняя,2
65000,3-я Советская,Санкт-Петербург,3009,21,Универсальное помещение,https://spb.n1.ru/view/116308549/?open_card_kn,"3-я Советская, 10, Санкт-Петербург, Россия","{'district': 'округ Смольнинское', 'lat': 59.9335968, 'lon': 30.3673394}",округ Смольнинское,59.9335968,30.3673394,"Санкт-Петербург, Площадь Восстания",0.45783497283976643,3.31,3310,Маленькая,1
110000,Моисеенко,Санкт-Петербург,1089,101,Универсальное помещение,https://spb.n1.ru/view/115960943/?open_card_kn,"Моисеенко, 25/24, Санкт-Петербург, Россия","{'district': 'округ Смольнинское', 'lat': 59.9370461, 'lon': 30.3838969}",округ Смольнинское,59.9370461,30.3838969,"Санкт-Петербург, Площадь Александра Невского-1",1.426600273427337,4.21,4210,Средняя,2
590000,Просвещения проспект,Санкт-Петербург,3687,160,Универсальное помещение,https://spb.n1.ru/view/115960937/?open_card_kn,"Просвещения проспект, 34, Санкт-Петербург, Россия","{'district': 'округ Шувалово-Озерки', 'lat': 60.0537347, 'lon': 30.3341337}",округ Шувалово-Озерки,60.0537347,30.3341337,"Санкт-Петербург, Проспект Просвещения",0.27400805796998967,13.03,13030,Большая,3
128500,Кубинская,Санкт-Петербург,2500,51,Универсальное помещение,https://spb.n1.ru/view/113485796/?open_card_kn,"Кубинская, 82 корп. 3, Санкт-Петербург, Россия","{'district': 'округ Новоизмайловское', 'lat': 59.8576411, 'lon': 30.2938078}",округ Новоизмайловское,59.8576411,30.2938078,"Санкт-Петербург, Ленинский проспект",1.6016453111607611,8.94,8940,Средняя,2
40000,Константина Заслонова,Санкт-Петербург,816,49,Универсальное помещение,https://spb.n1.ru/view/109008553/?open_card_kn,"Константина Заслонова, 11, Санкт-Петербург, Россия","{'district': 'Владимирский округ', 'lat': 59.9199984, 'lon': 30.349888}",Владимирский округ,59.9199984,30.349888,"Санкт-Петербург, Лиговский проспект",0.31080866730208645,3.02,3020,Маленькая,1
125000,Марата,Санкт-Петербург,1000,125,Универсальное помещение,https://spb.n1.ru/view/109008552/?open_card_kn,"Марата, 36, Санкт-Петербург, Россия","{'district': 'Владимирский округ', 'lat': 59.9254816, 'lon': 30.3528468}",Владимирский округ,59.9254816,30.3528468,"Санкт-Петербург, Владимирская",0.3483256712389879,2.81,2810,Большая,3
222000,Загребский бульвар,Санкт-Петербург,1489,149,Универсальное помещение,https://spb.n1.ru/view/115265445/?open_card_kn,"Загребский бульвар, 33, Санкт-Петербург, Россия","{'district': 'Балканский округ', 'lat': 59.8332335, 'lon': 30.410099}",Балканский округ,59.8332335,30.410099,"Санкт-Петербург, Дунайская",0.7549232129632907,12.93,12930,Большая,3
380000,Энгельса проспект,Санкт-Петербург,4578,83,Универсальное помещение,https://spb.n1.ru/view/116306303/?open_card_kn,"Энгельса проспект, 29, Санкт-Петербург, Россия","{'district': 'округ Светлановское', 'lat': 60.0067246, 'lon': 30.3277454}",округ Светлановское,60.0067246,30.3277454,"Санкт-Петербург, Удельная",1.2998430405532375,7.79,7790,Средняя,2
200000,Черной речки набережная,Санкт-Петербург,3384,59,Универсальное помещение,https://spb.n1.ru/view/116306302/?open_card_kn,"Черной речки набережная, 47 ст1, Санкт-Петербург, Россия","{'district': 'округ Ланское', 'lat': 59.9881157, 'lon': 30.3012851}",округ Ланское,59.9881157,30.3012851,"Санкт-Петербург, Чёрная речка",0.29034842297772495,5.65,5650,Средняя,2
232300,Суздальское шоссе,Санкт-Петербург,1880,123,Универсальное помещение,https://spb.n1.ru/view/116306217/?open_card_kn,"Суздальское шоссе, 18 корп. 2, Санкт-Петербург, Россия","{'district': 'округ Коломяги', 'lat': 60.0601894, 'lon': 30.2506186}",округ Коломяги,60.0601894,30.2506186,"Санкт-Петербург, Проспект Просвещения",4.658395900389092,14.05,14050,Большая,3
250000,Московский проспект,Санкт-Петербург,3289,76,Универсальное помещение,https://spb.n1.ru/view/116306195/?open_card_kn,"Московский проспект, 204, Санкт-Петербург, Россия","{'district': 'округ Московская застава', 'lat': 59.8588358, 'lon': 30.3216953}",округ Московская застава,59.8588358,30.3216953,"Санкт-Петербург, Московская",0.7808982041304253,8.79,8790,Средняя,2
100000,Московское шоссе,Санкт-Петербург,1000,100,Универсальное помещение,https://spb.n1.ru/view/115959320/?open_card_kn,"Московское шоссе, 25 корп. 1, Санкт-Петербург, Россия","{'district': 'Район не найден', 'lat': 59.8091375, 'lon': 30.3853733}",Район не найден,59.8091375,30.3853733,"Санкт-Петербург, Купчино",2.367043944460193,14.93,14930,Средняя,2
390000,Лиговский проспект,Санкт-Петербург,4333,90,Универсальное помещение,https://spb.n1.ru/view/115959319/?open_card_kn,"Лиговский проспект, 173, Санкт-Петербург, Россия","{'district': 'округ Волковское', 'lat': 59.9133909, 'lon': 30.3488938}",округ Волковское,59.9133909,30.3488938,"Санкт-Петербург, Обводный канал",0.14228329111849444,3.51,3510,Средняя,2
390000,Светлановский проспект,Санкт-Петербург,2280,171,Универсальное помещение,https://spb.n1.ru/view/115959318/?open_card_kn,"Светлановский проспект, 14 корп. 3, Санкт-Петербург, Россия","{'district': 'округ Светлановское', 'lat': 60.0063673, 'lon': 30.3357098}",округ Светлановское,60.0063673,30.3357098,"Санкт-Петербург, Удельная",1.606060238315835,7.82,7820,Большая,3
147000,Бабушкина,Санкт-Петербург,1792,82,Универсальное помещение,https://spb.n1.ru/view/115605360/?open_card_kn,"Бабушкина, 7, Санкт-Петербург, Россия","{'district': 'округ Невская застава', 'lat': 59.8973198, 'lon': 30.4211817}",округ Невская застава,59.8973198,30.4211817,"Санкт-Петербург, Елизаровская",0.15991118546340713,7.73,7730,Средняя,2
48390,Окуловская,Санкт-Петербург,300,161,Универсальное помещение,https://spb.n1.ru/view/116303104/?open_card_kn,"Окуловская, 18, Санкт-Петербург, Россия","{'district': 'Район не найден', 'lat': 59.8066734, 'lon': 30.3627699}",Район не найден,59.8066734,30.3627699,"Санкт-Петербург, Купчино",2.6711259397961995,14.89,14890,Большая,3
254000,Савушкина,Санкт-Петербург,3479,73,Универсальное помещение,https://spb.n1.ru/view/114532009/?open_card_kn,"Савушкина, 9, Санкт-Петербург, Россия","{'district': 'округ Ланское', 'lat': 59.9862958, 'lon': 30.2967091}",округ Ланское,59.9862958,30.2967091,"Санкт-Петербург, Чёрная речка",0.24571307384818375,5.48,5480,Средняя,2
110000,Маршала Блюхера проспект,Санкт-Петербург,1271,86,Универсальное помещение,https://spb.n1.ru/view/115955201/?open_card_kn,"Маршала Блюхера проспект, 7 корп. 2, Санкт-Петербург, Россия","{'district': 'округ Полюстрово', 'lat': 59.9755691, 'lon': 30.4395591}",округ Полюстрово,59.9755691,30.4395591,"Санкт-Петербург, Академическая",4.798607699362257,8.46,8460,Средняя,2
72450,Салова,Санкт-Петербург,2337,31,Универсальное помещение,https://spb.n1.ru/view/115955198/?open_card_kn,"Салова, 61, Санкт-Петербург, Россия","{'district': 'округ Волковское', 'lat': 59.8849503, 'lon': 30.368332}",округ Волковское,59.8849503,30.368332,"Санкт-Петербург, Бухарестская",0.1665904441495153,6.74,6740,Маленькая,1
100000,Новаторов бульвар,Санкт-Петербург,5000,20,Универсальное помещение,https://spb.n1.ru/view/114919359/?open_card_kn,"Новаторов бульвар, 8, Санкт-Петербург, Россия","{'district': 'округ Княжево', 'lat': 59.850563, 'lon': 30.2694269}",округ Княжево,59.850563,30.2694269,"Санкт-Петербург, Ленинский проспект",0.07910711622268336,9.93,9930,Маленькая,1
380000,Ветеранов проспект,Санкт-Петербург,2533,150,Универсальное помещение,https://spb.n1.ru/view/115262019/?open_card_kn,"Ветеранов проспект, 53/56ж, Санкт-Петербург, Россия","{'district': 'округ Ульянка', 'lat': 59.8335415, 'lon': 30.2174823}",округ Ульянка,59.8335415,30.2174823,"Санкт-Петербург, Проспект Ветеранов",2.115934529802192,12.66,12660,Большая,3
1750000,Зольная,Санкт-Петербург,1695,1031,Универсальное помещение,https://spb.n1.ru/view/116299420/?open_card_kn,"Зольная, 15, Санкт-Петербург, Россия","{'district': 'округ Правобережный', 'lat': 59.9186611, 'lon': 30.4275834}",округ Правобережный,59.9186611,30.4275834,"Санкт-Петербург, Новочеркасская",1.4579990813359496,6.98,6980,Очень крупная,5
220000,Малая Морская,Санкт-Петербург,1964,112,Универсальное помещение,https://spb.n1.ru/view/111632289/?open_card_kn,"Малая Морская, 6, Санкт-Петербург, Россия","{'district': 'округ № 78', 'lat': 59.9357164, 'lon': 30.3140372}",округ № 78,59.9357164,30.3140372,"Санкт-Петербург, Адмиралтейская",0.05271492590361856,0.36,360,Средняя,2
40000,Звенигородская,Санкт-Петербург,1818,22,Универсальное помещение,https://spb.n1.ru/view/115949121/?open_card_kn,"Звенигородская, 4, Санкт-Петербург, Россия","{'district': 'Владимирский округ', 'lat': 59.9227088, 'lon': 30.336394}",Владимирский округ,59.9227088,30.336394,"Санкт-Петербург, Звенигородская",0.05195327244518526,2.26,2260,Маленькая,1
480000,Невский проспект,Санкт-Петербург,1563,307,Универсальное помещение,https://spb.n1.ru/view/116294603/?open_card_kn,"Невский проспект, 147, Санкт-Петербург, Россия","{'district': 'округ Лиговка-Ямская', 'lat': 59.9256787, 'lon': 30.3778141}",округ Лиговка-Ямская,59.9256787,30.3778141,"Санкт-Петербург, Площадь Александра Невского-2",0.3923435490611203,4.09,4090,Крупная,4
360000,Пугачева,Санкт-Петербург,1132,318,Универсальное помещение,https://spb.n1.ru/view/113828571/?open_card_kn,"Пугачева, 9, Санкт-Петербург, Россия","{'district': 'округ Большая Охта', 'lat': 59.9513549, 'lon': 30.4181624}",округ Большая Охта,59.9513549,30.4181624,"Санкт-Петербург, Ладожская",2.4197734895472007,6.31,6310,Крупная,4
140000,Благодатная,Санкт-Петербург,2333,60,Универсальное помещение,https://spb.n1.ru/view/113471165/?open_card_kn,"Благодатная, 50, Санкт-Петербург, Россия","{'district': 'округ Московская застава', 'lat': 59.8770122, 'lon': 30.3408621}",округ Московская застава,59.8770122,30.3408621,"Санкт-Петербург, Электросила",1.2639343466562465,6.98,6980,Средняя,2
70000,Загородный проспект,Санкт-Петербург,1076,65,Универсальное помещение,https://spb.n1.ru/view/115254767/?open_card_kn,"Загородный проспект, 30, Санкт-Петербург, Россия","{'district': 'Владимирский округ', 'lat': 59.9247123, 'lon': 30.3390493}",Владимирский округ,59.9247123,30.3390493,"Санкт-Петербург, Звенигородская",0.3183273941731604,2.22,2220,Средняя,2
85000,Чапыгина,Санкт-Петербург,1493,56,Универсальное помещение,https://spb.n1.ru/view/116293493/?open_card_kn,"Чапыгина, 6, Санкт-Петербург, Россия","{'district': 'округ Аптекарский остров', 'lat': 59.9738136, 'lon': 30.3088462}",округ Аптекарский остров,59.9738136,30.3088462,"Санкт-Петербург, Петроградская",0.8372559562678495,4.05,4050,Средняя,2
168750,Малая Бухарестская,Санкт-Петербург,1500,112,Универсальное помещение,https://spb.n1.ru/view/112284908/?open_card_kn,"Малая Бухарестская, 12, Санкт-Петербург, Россия","{'district': 'Александровский округ', 'lat': 59.8471351, 'lon': 30.4177942}",Александровский округ,59.8471351,30.4177942,"Санкт-Петербург, Дунайская",0.878377909760556,11.78,11780,Средняя,2
155000,Московский проспект,Санкт-Петербург,4505,34,Универсальное помещение,https://spb.n1.ru/view/111624935/?open_card_kn,"Московский проспект, 137, Санкт-Петербург, Россия","{'district': 'округ Московская застава', 'lat': 59.8817752, 'lon': 30.3150154}",округ Московская застава,59.8817752,30.3150154,"Санкт-Петербург, Электросила",0.3375609661248164,6.22,6220,Маленькая,1
1000000,Восстания,Санкт-Петербург,4184,239,Универсальное помещение,https://spb.n1.ru/view/111215242/?open_card_kn,"Восстания, 6, Санкт-Петербург, Россия","{'district': 'Литейный округ', 'lat': 59.9332824, 'lon': 30.3595542}",Литейный округ,59.9332824,30.3595542,"Санкт-Петербург, Площадь Восстания",0.2140439621795888,2.89,2890,Большая,3
630000,Комендантский проспект,Санкт-Петербург,4200,150,Универсальное помещение,https://spb.n1.ru/view/111215239/?open_card_kn,"Комендантский проспект, 17 корп. 1, Санкт-Петербург, Россия","{'district': 'округ Коломяги', 'lat': 60.0388133, 'lon': 30.223171}",округ Коломяги,60.0388133,30.223171,"Санкт-Петербург, Комендантский проспект",3.9007895823865644,12.25,12250,Большая,3
100000,Рижский проспект,Санкт-Петербург,1385,72,Универсальное помещение,https://spb.n1.ru/view/115947251/?open_card_kn,"Рижский проспект, 50, Санкт-Петербург, Россия","{'district': 'Екатерингофский округ', 'lat': 59.9132266, 'lon': 30.2799268}",Екатерингофский округ,59.9132266,30.2799268,"Санкт-Петербург, Балтийская",1.2699726054709273,3.14,3140,Средняя,2
250000,Подъездной переулок,Санкт-Петербург,2016,124,Универсальное помещение,https://spb.n1.ru/view/115947249/?open_card_kn,"Подъездной переулок, 3, Санкт-Петербург, Россия","{'district': 'округ Семёновский', 'lat': 59.9196199, 'lon': 30.3313362}",округ Семёновский,59.9196199,30.3313362,"Санкт-Петербург, Пушкинская",0.14440813813664555,2.36,2360,Большая,3
880000,12-я В.О. линия,Санкт-Петербург,3591,245,Универсальное помещение,https://spb.n1.ru/view/115601993/?open_card_kn,"12-я В.О. линия, 29/53, Санкт-Петербург, Россия","{'district': 'округ № 7', 'lat': 59.9378411, 'lon': 30.2843481}",округ № 7,59.9378411,30.2843481,"Санкт-Петербург, Василеостровская",0.6259137759088353,1.36,1360,Большая,3
250000,Смольный проспект,Санкт-Петербург,2500,100,Универсальное помещение,https://spb.n1.ru/view/115254410/?open_card_kn,"Смольный проспект, 11, Санкт-Петербург, Россия","{'district': 'округ Смольнинское', 'lat': 59.9442631, 'lon': 30.3948418}",округ Смольнинское,59.9442631,30.3948418,"Санкт-Петербург, Новочеркасская",1.935139345810688,4.88,4880,Средняя,2
629000,Удельный проспект,Санкт-Петербург,1473,427,Универсальное помещение,https://spb.n1.ru/view/115945507/?open_card_kn,"Удельный проспект, 31, Санкт-Петербург, Россия","{'district': 'округ Светлановское', 'lat': 60.0197692, 'lon': 30.3140687}",округ Светлановское,60.0197692,30.3140687,"Санкт-Петербург, Удельная",0.35297583578951597,9.17,9170,Крупная,4
900372,Железноводская,Санкт-Петербург,1320,682,Универсальное помещение,https://spb.n1.ru/view/116290945/?open_card_kn,"Железноводская, 18 корп. 2, Санкт-Петербург, Россия","{'district': 'округ Остров Декабристов', 'lat': 59.9525198, 'lon': 30.2545858}",округ Остров Декабристов,59.9525198,30.2545858,"Санкт-Петербург, Приморская",1.1996804119728226,3.45,3450,Очень крупная,5
1100000,Каменноостровский проспект,Санкт-Петербург,4182,263,Универсальное помещение,https://spb.n1.ru/view/116290825/?open_card_kn,"Каменноостровский проспект, 31, Санкт-Петербург, Россия","{'district': 'округ Аптекарский остров', 'lat': 59.9715301, 'lon': 30.3059835}",округ Аптекарский остров,59.9715301,30.3059835,"Санкт-Петербург, Петроградская",0.6470048896430277,3.79,3790,Большая,3
250000,Зайцева,Санкт-Петербург,1748,143,Универсальное помещение,https://spb.n1.ru/view/116290751/?open_card_kn,"Зайцева, 4, Санкт-Петербург, Россия","{'district': 'округ Автово', 'lat': 59.8706209, 'lon': 30.2616276}",округ Автово,59.8706209,30.2616276,"Санкт-Петербург, Автово",0.3697376752011855,7.9,7900,Большая,3
350000,Витебский проспект,Санкт-Петербург,2500,140,Универсальное помещение,https://spb.n1.ru/view/113824932/?open_card_kn,"Витебский проспект, 99 корп. 1, Санкт-Петербург, Россия","{'district': 'Район не найден', 'lat': 59.8146918, 'lon': 30.3802241}",Район не найден,59.8146918,30.3802241,"Санкт-Петербург, Купчино",1.7045714371207024,14.26,14260,Большая,3
55000,Зайцева,Санкт-Петербург,1833,30,Универсальное помещение,https://spb.n1.ru/view/113824686/?open_card_kn,"Зайцева, 4, Санкт-Петербург, Россия","{'district': 'округ Автово', 'lat': 59.8706209, 'lon': 30.2616276}",округ Автово,59.8706209,30.2616276,"Санкт-Петербург, Автово",0.3697376752011855,7.9,7900,Маленькая,1
400000,Гражданский проспект,Санкт-Петербург,4171,95,Универсальное помещение,https://spb.n1.ru/view/115944745/?open_card_kn,"Гражданский проспект, 114 корп. 1, Санкт-Петербург, Россия","{'district': 'округ № 21', 'lat': 60.0330396, 'lon': 30.4167592}",округ № 21,60.0330396,30.4167592,"Санкт-Петербург, Гражданский проспект",0.22344644184968554,12.24,12240,Средняя,2
684000,Орджоникидзе,Санкт-Петербург,1994,343,Универсальное помещение,https://spb.n1.ru/view/116285734/?open_card_kn,"Орджоникидзе, 44а, Санкт-Петербург, Россия","{'district': 'округ Гагаринское', 'lat': 59.8445414, 'lon': 30.3403667}",округ Гагаринское,59.8445414,30.3403667,"Санкт-Петербург, Московская",1.284679469812807,10.51,10510,Крупная,4
60000,Зайцева,Санкт-Петербург,1276,47,Универсальное помещение,https://spb.n1.ru/view/116285482/?open_card_kn,"Зайцева, 4, Санкт-Петербург, Россия","{'district': 'округ Автово', 'lat': 59.8706209, 'lon': 30.2616276}",округ Автово,59.8706209,30.2616276,"Санкт-Петербург, Автово",0.3697376752011855,7.9,7900,Маленькая,1
60000,Парашютная,Санкт-Петербург,1250,48,Универсальное помещение,https://spb.n1.ru/view/115941580/?open_card_kn,"Парашютная, 52, Санкт-Петербург, Россия","{'district': 'округ Коломяги', 'lat': 60.0342902, 'lon': 30.2461983}",округ Коломяги,60.0342902,30.2461983,"Санкт-Петербург, Комендантский проспект",2.9455792658243967,11.33,11330,Маленькая,1
55000,Королева проспект,Санкт-Петербург,1666,33,Универсальное помещение,https://spb.n1.ru/view/116285356/?open_card_kn,"Королева проспект, 63 корп. 2, Санкт-Петербург, Россия","{'district': 'округ Коломяги', 'lat': 60.0401649, 'lon': 30.2321108}",округ Коломяги,60.0401649,30.2321108,"Санкт-Петербург, Комендантский проспект",3.8130199441736585,12.21,12210,Маленькая,1
1700000,Уральская,Санкт-Петербург,1700,1000,Универсальное помещение,https://spb.n1.ru/view/116285355/?open_card_kn,"Уральская, 1л, Санкт-Петербург, Россия","{'district': 'округ Остров Декабристов', 'lat': 59.9550413, 'lon': 30.2553369}",округ Остров Декабристов,59.9550413,30.2553369,"Санкт-Петербург, Приморская",1.3651632488461782,3.56,3560,Очень крупная,5
35000,11-я В.О. линия,Санкт-Петербург,1166,30,Универсальное помещение,https://spb.n1.ru/view/116285294/?open_card_kn,"11-я В.О. линия, 24, Санкт-Петербург, Россия","{'district': 'округ № 7', 'lat': 59.9416408, 'lon': 30.2848525}",округ № 7,59.9416408,30.2848525,"Санкт-Петербург, Василеостровская",0.38251179616109415,1.41,1410,Маленькая,1
101200,Дунайский проспект,Санкт-Петербург,2000,50,Универсальное помещение,https://spb.n1.ru/view/116285234/?open_card_kn,"Дунайский проспект, 7 корп. 7, Санкт-Петербург, Россия","{'district': 'Александровский округ', 'lat': 59.8434487, 'lon': 30.4141891}",Александровский округ,59.8434487,30.4141891,"Санкт-Петербург, Дунайская",0.42173471724678957,12.03,12030,Средняя,2
215000,Лиговский проспект,Санкт-Петербург,2828,76,Универсальное помещение,https://spb.n1.ru/view/116285233/?open_card_kn,"Лиговский проспект, 242, Санкт-Петербург, Россия","{'district': 'округ Волковское', 'lat': 59.902095, 'lon': 30.3423195}",округ Волковское,59.902095,30.3423195,"Санкт-Петербург, Волковская",1.098549058460446,4.37,4370,Средняя,2
70000,Невский проспект,Санкт-Петербург,1044,67,Универсальное помещение,https://spb.n1.ru/view/115940816/?open_card_kn,"Невский проспект, 81, Санкт-Петербург, Россия","{'district': 'Владимирский округ', 'lat': 59.9308035, 'lon': 30.3590815}",Владимирский округ,59.9308035,30.3590815,"Санкт-Петербург, Площадь Восстания",0.09857848554882721,2.92,2920,Средняя,2
175000,Космонавтов проспект,Санкт-Петербург,1367,128,Универсальное помещение,https://spb.n1.ru/view/116285180/?open_card_kn,"Космонавтов проспект, 61 корп. 1, Санкт-Петербург, Россия","{'district': 'округ Гагаринское', 'lat': 59.8528171, 'lon': 30.3524234}",округ Гагаринское,59.8528171,30.3524234,"Санкт-Петербург, Московская",1.6740553536102032,9.75,9750,Большая,3
250000,Федора Абрамова,Санкт-Петербург,2212,113,Универсальное помещение,https://spb.n1.ru/view/116285156/?open_card_kn,"Федора Абрамова, 16 корп. 1, Санкт-Петербург, Россия","{'district': 'Торфяное', 'lat': 60.0683699, 'lon': 30.3357428}",Торфяное,60.0683699,30.3357428,"Санкт-Петербург, Парнас",0.18839852754016714,14.66,14660,Средняя,2
100000,Гаванская,Санкт-Петербург,1149,87,Универсальное помещение,https://spb.n1.ru/view/116285131/?open_card_kn,"Гаванская, 17, Санкт-Петербург, Россия","{'district': 'округ Гавань', 'lat': 59.930723, 'lon': 30.2411267}",округ Гавань,59.930723,30.2411267,"Санкт-Петербург, Горный институт",1.1294574151253967,3.85,3850,Средняя,2
212310,Коломяжский проспект,Санкт-Петербург,2100,101,Универсальное помещение,https://spb.n1.ru/view/115600091/?open_card_kn,"Коломяжский проспект, 13 корп. 3, Санкт-Петербург, Россия","{'district': 'округ Комендантский аэродром', 'lat': 60.0145485, 'lon': 30.2937722}",округ Комендантский аэродром,60.0145485,30.2937722,"Санкт-Петербург, Удельная",1.2281845271677585,8.62,8620,Средняя,2
189900,Молдагуловой,Санкт-Петербург,895,212,Универсальное помещение,https://spb.n1.ru/view/115600067/?open_card_kn,"Молдагуловой, 5, Санкт-Петербург, Россия","{'district': 'округ Большая Охта', 'lat': 59.9476612, 'lon': 30.4119666}",округ Большая Охта,59.9476612,30.4119666,"Санкт-Петербург, Новочеркасская",2.079273314842805,5.89,5890,Большая,3
239400,Савушкина,Санкт-Петербург,2100,114,Универсальное помещение,https://spb.n1.ru/view/115940572/?open_card_kn,"Савушкина, 12, Санкт-Петербург, Россия","{'district': 'округ Ланское', 'lat': 59.9854184, 'lon': 30.2969791}",округ Ланское,59.9854184,30.2969791,"Санкт-Петербург, Чёрная речка",0.21506904312576372,5.38,5380,Средняя,2
150000,Дачный проспект,Санкт-Петербург,1260,119,Универсальное помещение,https://spb.n1.ru/view/116279808/?open_card_kn,"Дачный проспект, 2 корп. 1, Санкт-Петербург, Россия","{'district': 'округ Дачное', 'lat': 59.8405279, 'lon': 30.2573751}",округ Дачное,59.8405279,30.2573751,"Санкт-Петербург, Проспект Ветеранов",0.35413103152186454,11.18,11180,Средняя,2
185000,9-й Верхний переулок,Санкт-Петербург,2761,67,Универсальное помещение,https://spb.n1.ru/view/116279805/?open_card_kn,"9-й Верхний переулок, 24, Санкт-Петербург, Россия","{'district': 'округ Сергиевское', 'lat': 60.0855944, 'lon': 30.36661}",округ Сергиевское,60.0855944,30.36661,"Санкт-Петербург, Парнас",2.754769308827021,16.81,16810,Средняя,2
65000,Диагональная,Санкт-Петербург,2031,32,Универсальное помещение,https://spb.n1.ru/view/116279801/?open_card_kn,"Диагональная, 6, Санкт-Петербург, Россия","{'district': 'округ Сампсониевское', 'lat': 59.9813932, 'lon': 30.3476189}",округ Сампсониевское,59.9813932,30.3476189,"Санкт-Петербург, Лесная",0.41344977880530176,5.35,5350,Маленькая,1
80000,Жуковского,Санкт-Петербург,1290,62,Универсальное помещение,https://spb.n1.ru/view/116279677/?open_card_kn,"Жуковского, 49, Санкт-Петербург, Россия","{'district': 'Литейный округ', 'lat': 59.93568, 'lon': 30.3592071}",Литейный округ,59.93568,30.3592071,"Санкт-Петербург, Площадь Восстания",0.4800864072784036,2.84,2840,Средняя,2
70000,Ярослава Гашека,Санкт-Петербург,2058,34,Универсальное помещение,https://spb.n1.ru/view/116279625/?open_card_kn,"Ярослава Гашека, 8 корп. 1, Санкт-Петербург, Россия","{'district': 'Балканский округ', 'lat': 59.836863, 'lon': 30.4065757}",Балканский округ,59.836863,30.4065757,"Санкт-Петербург, Дунайская",0.4287032460639197,12.48,12480,Маленькая,1
550000,Московский проспект,Санкт-Петербург,1489,369,Универсальное помещение,https://spb.n1.ru/view/115936790/?open_card_kn,"Московский проспект, 171, Санкт-Петербург, Россия","{'district': 'округ Пулковский меридиан', 'lat': 59.8625274, 'lon': 30.3201776}",округ Пулковский меридиан,59.8625274,30.3201776,"Санкт-Петербург, Парк Победы (закрыта)",0.45416534055679225,8.38,8380,Крупная,4
185000,9-й Верхний переулок,Санкт-Петербург,2761,67,Универсальное помещение,https://spb.n1.ru/view/116279561/?open_card_kn,"9-й Верхний переулок, 24, Санкт-Петербург, Россия","{'district': 'округ Сергиевское', 'lat': 60.0855944, 'lon': 30.36661}",округ Сергиевское,60.0855944,30.36661,"Санкт-Петербург, Парнас",2.754769308827021,16.81,16810,Средняя,2
800000,Малая Бухарестская,Санкт-Петербург,1333,600,Универсальное помещение,https://spb.n1.ru/view/113085971/?open_card_kn,"Малая Бухарестская, 4, Санкт-Петербург, Россия","{'district': 'Александровский округ', 'lat': 59.8509093, 'lon': 30.4120243}",Александровский округ,59.8509093,30.4120243,"Санкт-Петербург, Проспект Славы",1.1432187347208174,11.25,11250,Очень крупная,5
178500,Шишкина,Санкт-Петербург,1400,127,Универсальное помещение,https://spb.n1.ru/view/110310609/?open_card_kn,"Шишкина, 307, Санкт-Петербург, Россия","{'district': 'Торфяное', 'lat': 60.0870569, 'lon': 30.3529415}",Торфяное,60.0870569,30.3529415,"Санкт-Петербург, Парнас",2.473435335889153,16.84,16840,Большая,3
85000,Ветеранов проспект,Санкт-Петербург,1509,56,Универсальное помещение,https://spb.n1.ru/view/115936641/?open_card_kn,"Ветеранов проспект, 206, Санкт-Петербург, Россия","{'district': 'округ Сосновая поляна', 'lat': 59.8363406, 'lon': 30.1036394}",округ Сосновая поляна,59.8363406,30.1036394,"Санкт-Петербург, Проспект Ветеранов",8.287646151663788,16.08,16079,Средняя,2
129200,Михаила Дудина,Санкт-Петербург,1700,76,Универсальное помещение,https://spb.n1.ru/view/114903096/?open_card_kn,"Михаила Дудина, 12, Санкт-Петербург, Россия","{'district': 'Торфяное', 'lat': 60.0710595, 'lon': 30.3242284}",Торфяное,60.0710595,30.3242284,"Санкт-Петербург, Парнас",0.7082811070541533,14.91,14910,Средняя,2
165000,Добролюбова проспект,Санкт-Петербург,1309,126,Универсальное помещение,https://spb.n1.ru/view/115598465/?open_card_kn,"Добролюбова проспект, 3, Санкт-Петербург, Россия","{'district': 'Введенский округ', 'lat': 59.9497229, 'lon': 30.3048574}",Введенский округ,59.9497229,30.3048574,"Санкт-Петербург, Спортивная",0.9337227926053577,1.38,1380,Большая,3
886250,Левашовский проспект,Санкт-Петербург,2500,354,Универсальное помещение,https://spb.n1.ru/view/116275081/?open_card_kn,"Левашовский проспект, 12, Санкт-Петербург, Россия","{'district': 'округ Чкаловское', 'lat': 59.9659063, 'lon': 30.2927489}",округ Чкаловское,59.9659063,30.2927489,"Санкт-Петербург, Чкаловская",0.5505870400668748,3.29,3290,Крупная,4
100000,Марата,Санкт-Петербург,2000,50,Универсальное помещение,https://spb.n1.ru/view/116274872/?open_card_kn,"Марата, 45/12, Санкт-Петербург, Россия","{'district': 'Владимирский округ', 'lat': 59.9246627, 'lon': 30.3507967}",Владимирский округ,59.9246627,30.3507967,"Санкт-Петербург, Владимирская",0.34503363660928993,2.76,2760,Средняя,2
1590000,Реки Мойки набережная,Санкт-Петербург,2000,795,Универсальное помещение,https://spb.n1.ru/view/113803708/?open_card_kn,"Реки Мойки набережная, 73, Санкт-Петербург, Россия","{'district': 'Адмиралтейский округ', 'lat': 59.9333214, 'lon': 30.3141762}",Адмиралтейский округ,59.9333214,30.3141762,"Санкт-Петербург, Адмиралтейская",0.2886913069227545,0.56,560,Очень крупная,5
232500,Ремесленная,Санкт-Петербург,2500,93,Универсальное помещение,https://spb.n1.ru/view/113803657/?open_card_kn,"Ремесленная, 15, Санкт-Петербург, Россия","{'district': 'Петровский округ', 'lat': 59.9581113, 'lon': 30.2677113}",Петровский округ,59.9581113,30.2677113,"Санкт-Петербург, Чкаловская",1.388826129588328,3.24,3240,Средняя,2
25000,Выборгское шоссе,Санкт-Петербург,1250,20,Универсальное помещение,https://spb.n1.ru/view/116269397/?open_card_kn,"Выборгское шоссе, 15, Санкт-Петербург, Россия","{'district': 'округ Шувалово-Озерки', 'lat': 60.0528093, 'lon': 30.3120543}",округ Шувалово-Озерки,60.0528093,30.3120543,"Санкт-Петербург, Проспект Просвещения",1.1554532355009075,12.85,12850,Маленькая,1
30000,Камышовая,Санкт-Петербург,937,32,Универсальное помещение,https://spb.n1.ru/view/116269304/?open_card_kn,"Камышовая, 6 корп. 1, Санкт-Петербург, Россия","{'district': 'округ Озеро Долгое', 'lat': 60.0052919, 'lon': 30.2527952}",округ Озеро Долгое,60.0052919,30.2527952,"Санкт-Петербург, Комендантский проспект",0.4862504459612187,8.17,8170,Маленькая,1
29000,Олеко Дундича,Санкт-Петербург,1705,17,Универсальное помещение,https://spb.n1.ru/view/115239947/?open_card_kn,"Олеко Дундича, 40, Санкт-Петербург, Россия","{'district': 'Александровский округ', 'lat': 59.8355289, 'lon': 30.4267883}",Александровский округ,59.8355289,30.4267883,"Санкт-Петербург, Дунайская",1.0121046165568324,13.15,13150,Маленькая,1
156061,Николая Рубцова,Санкт-Петербург,1665,93,Универсальное помещение,https://spb.n1.ru/view/112272785/?open_card_kn,"Николая Рубцова, 5, Санкт-Петербург, Россия","{'district': 'Торфяное', 'lat': 60.0764772, 'lon': 30.3430105}",Торфяное,60.0764772,30.3430105,"Санкт-Петербург, Парнас",1.174484751064802,15.6,15600,Средняя,2
189000,Невский проспект,Санкт-Петербург,2554,74,Универсальное помещение,https://spb.n1.ru/view/112021388/?open_card_kn,"Невский проспект, 74, Санкт-Петербург, Россия","{'district': 'Литейный округ', 'lat': 59.9335192, 'lon': 30.3470496}",Литейный округ,59.9335192,30.3470496,"Санкт-Петербург, Маяковская",0.49254671446463366,2.19,2190,Средняя,2
150000,Ленсовета,Санкт-Петербург,1415,106,Универсальное помещение,https://spb.n1.ru/view/112272559/?open_card_kn,"Ленсовета, 22, Санкт-Петербург, Россия","{'district': 'округ Звёздное', 'lat': 59.8512524, 'lon': 30.3304174}",округ Звёздное,59.8512524,30.3304174,"Санкт-Петербург, Московская",0.44605878082712475,9.69,9690,Средняя,2
141000,Уральская,Санкт-Петербург,2203,64,Универсальное помещение,https://spb.n1.ru/view/115596445/?open_card_kn,"Уральская, 23, Санкт-Петербург, Россия","{'district': 'округ Остров Декабристов', 'lat': 59.9565187, 'lon': 30.2501911}",округ Остров Декабристов,59.9565187,30.2501911,"Санкт-Петербург, Приморская",1.2450877870061061,3.89,3890,Средняя,2
85000,Ленсовета,Санкт-Петербург,2591,32,Универсальное помещение,https://spb.n1.ru/view/116266909/?open_card_kn,"Ленсовета, 88, Санкт-Петербург, Россия","{'district': 'округ Звёздное', 'lat': 59.8331714, 'lon': 30.3504302}",округ Звёздное,59.8331714,30.3504302,"Санкт-Петербург, Звёздная",0.042925237504940955,11.86,11860,Маленькая,1
90000,Фермское шоссе,Санкт-Петербург,810,111,Универсальное помещение,https://spb.n1.ru/view/116266895/?open_card_kn,"Фермское шоссе, 20 корп. 2, Санкт-Петербург, Россия","{'district': 'округ Комендантский аэродром', 'lat': 60.0107741, 'lon': 30.3095032}",округ Комендантский аэродром,60.0107741,30.3095032,"Санкт-Петербург, Удельная",0.7346586445650982,8.16,8160,Средняя,2
59000,Авиаконструкторов проспект,Санкт-Петербург,2034,29,Универсальное помещение,https://spb.n1.ru/view/116266848/?open_card_kn,"Авиаконструкторов проспект, 63, Санкт-Петербург, Россия","{'district': 'округ Юнтолово', 'lat': 60.0342736, 'lon': 30.2072985}",округ Юнтолово,60.0342736,30.2072985,"Санкт-Петербург, Комендантский проспект",4.040765544615799,12.18,12180,Маленькая,1
200000,Смольный проспект,Санкт-Петербург,1250,160,Универсальное помещение,https://spb.n1.ru/view/116266764/?open_card_kn,"Смольный проспект, 17, Санкт-Петербург, Россия","{'district': 'округ Смольнинское', 'lat': 59.9432511, 'lon': 30.3960208}",округ Смольнинское,59.9432511,30.3960208,"Санкт-Петербург, Новочеркасская",1.8049225890635163,4.93,4930,Большая,3
41000,Ленсовета,Санкт-Петербург,3037,13,Универсальное помещение,https://spb.n1.ru/view/116266633/?open_card_kn,"Ленсовета, 88, Санкт-Петербург, Россия","{'district': 'округ Звёздное', 'lat': 59.8331714, 'lon': 30.3504302}",округ Звёздное,59.8331714,30.3504302,"Санкт-Петербург, Звёздная",0.042925237504940955,11.86,11860,Маленькая,1
122000,Кузнецовская,Санкт-Петербург,1564,78,Универсальное помещение,https://spb.n1.ru/view/113076491/?open_card_kn,"Кузнецовская, 58 корп. 3, Санкт-Петербург, Россия","{'district': 'округ Гагаринское', 'lat': 59.8719531, 'lon': 30.340243}",округ Гагаринское,59.8719531,30.340243,"Санкт-Петербург, Парк Победы (закрыта)",1.194849677306676,7.51,7510,Средняя,2
168300,2-я Советская,Санкт-Петербург,1700,99,Универсальное помещение,https://spb.n1.ru/view/116263504/?open_card_kn,"2-я Советская, 19, Санкт-Петербург, Россия","{'district': 'округ Смольнинское', 'lat': 59.931463, 'lon': 30.368563}",округ Смольнинское,59.931463,30.368563,"Санкт-Петербург, Площадь Восстания",0.45566701702218493,3.42,3420,Средняя,2
35000,проспект Старорусский,Санкт-Петербург,1335,26,Универсальное помещение,https://spb.n1.ru/view/116263434/?open_card_kn,"проспект Старорусский, 5 корп. 1, Санкт-Петербург, Россия","{'district': 'Район не найден', 'lat': 59.8086604, 'lon': 30.3584321}",Район не найден,59.8086604,30.3584321,"Санкт-Петербург, Купчино",2.539392984311102,14.62,14620,Маленькая,1
749000,Садовая,Санкт-Петербург,2455,305,Универсальное помещение,https://spb.n1.ru/view/116263383/?open_card_kn,"Садовая, 46, Санкт-Петербург, Россия","{'district': 'Сенной округ', 'lat': 59.9249899, 'lon': 30.3150833}",Сенной округ,59.9249899,30.3150833,"Санкт-Петербург, Садовая",0.25534292188545404,1.44,1440,Крупная,4
300000,Миргородская,Санкт-Петербург,3260,92,Универсальное помещение,https://spb.n1.ru/view/116263279/?open_card_kn,"Миргородская, 1, Санкт-Петербург, Россия","{'district': 'округ Лиговка-Ямская', 'lat': 59.9259826, 'lon': 30.3687275}",округ Лиговка-Ямская,59.9259826,30.3687275,"Санкт-Петербург, Площадь Восстания",0.7611382392631375,3.6,3600,Средняя,2
178000,Ленинский проспект,Санкт-Петербург,1202,148,Универсальное помещение,https://spb.n1.ru/view/116263155/?open_card_kn,"Ленинский проспект, 134, Санкт-Петербург, Россия","{'district': 'округ Княжево', 'lat': 59.8523012, 'lon': 30.2747328}",округ Княжево,59.8523012,30.2747328,"Санкт-Петербург, Ленинский проспект",0.38457686915404526,9.68,9680,Большая,3
45000,Макарова набережная,Санкт-Петербург,1406,32,Универсальное помещение,https://spb.n1.ru/view/116263107/?open_card_kn,"Макарова набережная, 58, Санкт-Петербург, Россия","{'district': 'округ Остров Декабристов', 'lat': 59.9565057, 'lon': 30.2469976}",округ Остров Декабристов,59.9565057,30.2469976,"Санкт-Петербург, Приморская",1.1271762280837625,4.04,4040,Маленькая,1
234500,Измайловский проспект,Санкт-Петербург,3500,67,Универсальное помещение,https://spb.n1.ru/view/110300248/?open_card_kn,"Измайловский проспект, 1 корп. 2, Санкт-Петербург, Россия","{'district': 'округ Измайловское', 'lat': 59.9144831, 'lon': 30.3076519}",округ Измайловское,59.9144831,30.3076519,"Санкт-Петербург, Технологический институт-1",0.6171813253695294,2.56,2560,Средняя,2
93600,Морская набережная,Санкт-Петербург,1800,52,Универсальное помещение,https://spb.n1.ru/view/116263106/?open_card_kn,"Морская набережная, 31 корп. 1, Санкт-Петербург, Россия","{'district': 'округ Остров Декабристов', 'lat': 59.9603443, 'lon': 30.2314691}",округ Остров Декабристов,59.9603443,30.2314691,"Санкт-Петербург, Приморская",1.329260797139981,5.01,5010,Средняя,2
100000,1-я Красноармейская,Санкт-Петербург,1904,52,Универсальное помещение,https://spb.n1.ru/view/114893545/?open_card_kn,"1-я Красноармейская, 14, Санкт-Петербург, Россия","{'district': 'округ Измайловское', 'lat': 59.9157036, 'lon': 30.3127841}",округ Измайловское,59.9157036,30.3127841,"Санкт-Петербург, Технологический институт-1",0.30819761647596927,2.44,2440,Средняя,2
85000,Культуры проспект,Санкт-Петербург,1603,53,Универсальное помещение,https://spb.n1.ru/view/115593272/?open_card_kn,"Культуры проспект, 20, Санкт-Петербург, Россия","{'district': 'округ Суздальское', 'lat': 60.0455478, 'lon': 30.3732359}",округ Суздальское,60.0455478,30.3732359,"Санкт-Петербург, Проспект Просвещения",2.343494608620336,12.57,12570,Средняя,2
500000,1-я Советская,Санкт-Петербург,1728,289,Универсальное помещение,https://spb.n1.ru/view/111606882/?open_card_kn,"1-я Советская, 6, Санкт-Петербург, Россия","{'district': 'округ Смольнинское', 'lat': 59.9319499, 'lon': 30.363497}",округ Смольнинское,59.9319499,30.363497,"Санкт-Петербург, Площадь Восстания",0.18373237477000218,3.13,3130,Большая,3
426000,Новолитовская,Санкт-Петербург,1000,426,Универсальное помещение,https://spb.n1.ru/view/115593184/?open_card_kn,"Новолитовская, 15д, Санкт-Петербург, Россия","{'district': 'округ Сампсониевское', 'lat': 59.9805893, 'lon': 30.3571974}",округ Сампсониевское,59.9805893,30.3571974,"Санкт-Петербург, Лесная",0.8539184046861645,5.51,5510,Крупная,4
189200,проспект Старорусский,Санкт-Петербург,1000,189,Универсальное помещение,https://spb.n1.ru/view/116262998/?open_card_kn,"проспект Старорусский, 8 корп. 1, Санкт-Петербург, Россия","{'district': 'Район не найден', 'lat': 59.8086604, 'lon': 30.3584321}",Район не найден,59.8086604,30.3584321,"Санкт-Петербург, Купчино",2.539392984311102,14.62,14620,Большая,3
270000,Звездная,Санкт-Петербург,3970,68,Универсальное помещение,https://spb.n1.ru/view/116262997/?open_card_kn,"Звездная, 2, Санкт-Петербург, Россия","{'district': 'округ Звёздное', 'lat': 59.8326425, 'lon': 30.3454203}",округ Звёздное,59.8326425,30.3454203,"Санкт-Петербург, Звёздная",0.24422142419333562,11.86,11860,Средняя,2
96000,Рылеева,Санкт-Петербург,3096,31,Универсальное помещение,https://spb.n1.ru/view/116257947/?open_card_kn,"Рылеева, 33, Санкт-Петербург, Россия","{'district': 'округ Смольнинское', 'lat': 59.9421652, 'lon': 30.3613807}",округ Смольнинское,59.9421652,30.3613807,"Санкт-Петербург, Чернышевская",0.2743302081875296,3.0,3000,Маленькая,1
128000,Крыленко,Санкт-Петербург,2203,58,Универсальное помещение,https://spb.n1.ru/view/108458411/?open_card_kn,"Крыленко, 14 ст3, Санкт-Петербург, Россия","{'district': 'округ № 54', 'lat': 59.8965829, 'lon': 30.4731144}",округ № 54,59.8965829,30.4731144,"Санкт-Петербург, Улица Дыбенко",1.3404045713080837,10.27,10270,Средняя,2
40000,Пирогова переулок,Санкт-Петербург,751,53,Универсальное помещение,https://spb.n1.ru/view/116257675/?open_card_kn,"Пирогова переулок, 19, Санкт-Петербург, Россия","{'district': 'Адмиралтейский округ', 'lat': 59.9290257, 'lon': 30.3013794}",Адмиралтейский округ,59.9290257,30.3013794,"Санкт-Петербург, Садовая",0.9475870084342138,1.03,1030,Средняя,2
278000,Дальневосточный проспект,Санкт-Петербург,800,347,Универсальное помещение,https://spb.n1.ru/view/116257587/?open_card_kn,"Дальневосточный проспект, 57 корп. 1, Санкт-Петербург, Россия","{'district': 'округ Правобережный', 'lat': 59.9124252, 'lon': 30.4392948}",округ Правобережный,59.9124252,30.4392948,"Санкт-Петербург, Проспект Большевиков",1.739836464998452,7.82,7820,Крупная,4
294270,Заречная,Санкт-Петербург,2550,115,Универсальное помещение,https://spb.n1.ru/view/106874885/?open_card_kn,"Заречная, 56, Санкт-Петербург, Россия","{'district': 'Район не найден', 'lat': 60.0834516, 'lon': 30.3544801}",Район не найден,60.0834516,30.3544801,"Санкт-Петербург, Парнас",2.161369693945177,16.46,16460,Средняя,2
180000,Канала Грибоедова набережная,Санкт-Петербург,1384,130,Универсальное помещение,https://spb.n1.ru/view/115231153/?open_card_kn,"Канала Грибоедова набережная, 102б, Санкт-Петербург, Россия","{'district': 'округ Коломна', 'lat': 59.9182714, 'lon': 30.2814753}",округ Коломна,59.9182714,30.2814753,"Санкт-Петербург, Балтийская",1.581732970825735,2.63,2630,Большая,3
650000,Комендантский проспект,Санкт-Петербург,3987,163,Универсальное помещение,https://spb.n1.ru/view/116251440/?open_card_kn,"Комендантский проспект, 67, Санкт-Петербург, Россия","{'district': 'округ Коломяги', 'lat': 60.0377688, 'lon': 30.2256429}",округ Коломяги,60.0377688,30.2256429,"Санкт-Петербург, Комендантский проспект",3.7316629402757955,12.09,12090,Большая,3
40000,Просвещения проспект,Санкт-Петербург,2000,20,Универсальное помещение,https://spb.n1.ru/view/116251343/?open_card_kn,"Просвещения проспект, 33 корп. 1, Санкт-Петербург, Россия","{'district': 'округ № 21', 'lat': 60.0342257, 'lon': 30.4258285}",округ № 21,60.0342257,30.4258285,"Санкт-Петербург, Гражданский проспект",0.42882061112738235,12.61,12610,Маленькая,1
1181555,Уральская,Санкт-Петербург,1915,617,Универсальное помещение,https://spb.n1.ru/view/111169778/?open_card_kn,"Уральская, 4, Санкт-Петербург, Россия","{'district': 'округ Остров Декабристов', 'lat': 59.9508449, 'lon': 30.2609167}",округ Остров Декабристов,59.9508449,30.2609167,"Санкт-Петербург, Василеостровская",1.3333970145509582,3.05,3050,Очень крупная,5
64512,Планерная,Санкт-Петербург,840,76,Универсальное помещение,https://spb.n1.ru/view/115223411/?open_card_kn,"Планерная, 99, Санкт-Петербург, Россия","{'district': 'округ Юнтолово', 'lat': 60.0343635, 'lon': 30.1946817}",округ Юнтолово,60.0343635,30.1946817,"Санкт-Петербург, Комендантский проспект",4.569097599947391,12.53,12530,Средняя,2
60000,Ветеранов проспект,Санкт-Петербург,1034,58,Универсальное помещение,https://spb.n1.ru/view/113067457/?open_card_kn,"Ветеранов проспект, 198, Санкт-Петербург, Россия","{'district': 'округ Сосновая поляна', 'lat': 59.8349406, 'lon': 30.1108677}",округ Сосновая поляна,59.8349406,30.1108677,"Санкт-Петербург, Проспект Ветеранов",7.898687756179915,15.91,15910,Средняя,2
90585,Народная,Санкт-Петербург,1350,67,Универсальное помещение,https://spb.n1.ru/view/116242879/?open_card_kn,"Народная, 87, Санкт-Петербург, Россия","{'district': 'Народный округ', 'lat': 59.8842582, 'lon': 30.4860367}",Народный округ,59.8842582,30.4860367,"Санкт-Петербург, Пролетарская",2.2933927036323865,11.56,11560,Средняя,2
98000,Большая Пушкарская,Санкт-Петербург,1240,79,Универсальное помещение,https://spb.n1.ru/view/116242854/?open_card_kn,"Большая Пушкарская, 10в, Санкт-Петербург, Россия","{'district': 'Введенский округ', 'lat': 59.9556105, 'lon': 30.2981753}",Введенский округ,59.9556105,30.2981753,"Санкт-Петербург, Чкаловская",0.6879206245655864,2.1,2100,Средняя,2
300000,Суворовский проспект,Санкт-Петербург,2329,128,Универсальное помещение,https://spb.n1.ru/view/116242838/?open_card_kn,"Суворовский проспект, 54, Санкт-Петербург, Россия","{'district': 'округ Смольнинское', 'lat': 59.94419, 'lon': 30.3853757}",округ Смольнинское,59.94419,30.3853757,"Санкт-Петербург, Чернышевская",1.424702442175438,4.36,4360,Большая,3
24500,Народная,Санкт-Петербург,1000,24,Универсальное помещение,https://spb.n1.ru/view/116242784/?open_card_kn,"Народная, 87, Санкт-Петербург, Россия","{'district': 'Народный округ', 'lat': 59.8842582, 'lon': 30.4860367}",Народный округ,59.8842582,30.4860367,"Санкт-Петербург, Пролетарская",2.2933927036323865,11.56,11560,Маленькая,1
1590000,Галерный проезд,Санкт-Петербург,3000,530,Универсальное помещение,https://spb.n1.ru/view/113795025/?open_card_kn,"Галерный проезд, 1 корп. 2, Санкт-Петербург, Россия","{'district': 'округ Гавань', 'lat': 59.9346635, 'lon': 30.2266107}",округ Гавань,59.9346635,30.2266107,"Санкт-Петербург, Приморская",1.6008079472020618,4.6,4600,Крупная,4
360000,Галерный проезд,Санкт-Петербург,3000,120,Универсальное помещение,https://spb.n1.ru/view/113795016/?open_card_kn,"Галерный проезд, 1 корп. 2, Санкт-Петербург, Россия","{'district': 'округ Гавань', 'lat': 59.9346635, 'lon': 30.2266107}",округ Гавань,59.9346635,30.2266107,"Санкт-Петербург, Приморская",1.6008079472020618,4.6,4600,Большая,3
450000,Галерный проезд,Санкт-Петербург,2500,180,Универсальное помещение,https://spb.n1.ru/view/113795011/?open_card_kn,"Галерный проезд, 1 корп. 2, Санкт-Петербург, Россия","{'district': 'округ Гавань', 'lat': 59.9346635, 'lon': 30.2266107}",округ Гавань,59.9346635,30.2266107,"Санкт-Петербург, Приморская",1.6008079472020618,4.6,4600,Большая,3
125000,Садовая,Санкт-Петербург,1736,72,Универсальное помещение,https://spb.n1.ru/view/115220792/?open_card_kn,"Садовая, 82, Санкт-Петербург, Россия","{'district': 'округ Коломна', 'lat': 59.9190272, 'lon': 30.2927804}",округ Коломна,59.9190272,30.2927804,"Санкт-Петербург, Балтийская",1.3650621100151972,2.24,2240,Средняя,2
120000,проспект Крузенштерна,Санкт-Петербург,1321,90,Универсальное помещение,https://spb.n1.ru/view/115220790/?open_card_kn,"проспект Крузенштерна, 2, Санкт-Петербург, Россия","{'district': 'округ Гавань', 'lat': 59.9312848, 'lon': 30.2012187}",округ Гавань,59.9312848,30.2012187,"Санкт-Петербург, Приморская",2.6678967913186225,6.04,6040,Средняя,2
140000,Дрезденская,Санкт-Петербург,1931,72,Универсальное помещение,https://spb.n1.ru/view/115220779/?open_card_kn,"Дрезденская, 10 корп. 2, Санкт-Петербург, Россия","{'district': 'округ Светлановское', 'lat': 60.0146322, 'lon': 30.3386488}",округ Светлановское,60.0146322,30.3386488,"Санкт-Петербург, Удельная",1.308382635447631,8.76,8760,Средняя,2
90000,Марата,Санкт-Петербург,2250,40,Универсальное помещение,https://spb.n1.ru/view/116241314/?open_card_kn,"Марата, 35, Санкт-Петербург, Россия","{'district': 'Владимирский округ', 'lat': 59.9258315, 'lon': 30.3514793}",Владимирский округ,59.9258315,30.3514793,"Санкт-Петербург, Владимирская",0.2648321809500896,2.73,2730,Маленькая,1
450000,Малая Садовая,Санкт-Петербург,2250,200,Универсальное помещение,https://spb.n1.ru/view/111596793/?open_card_kn,"Малая Садовая, 1/25, Санкт-Петербург, Россия","{'district': 'Дворцовый округ', 'lat': 59.9349745, 'lon': 30.3369179}",Дворцовый округ,59.9349745,30.3369179,"Санкт-Петербург, Гостиный Двор",0.3387338856213212,1.61,1610,Большая,3
500000,Комендантский проспект,Санкт-Петербург,3030,165,Универсальное помещение,https://spb.n1.ru/view/115218594/?open_card_kn,"Комендантский проспект, 17 корп. 1, Санкт-Петербург, Россия","{'district': 'округ Коломяги', 'lat': 60.0388133, 'lon': 30.223171}",округ Коломяги,60.0388133,30.223171,"Санкт-Петербург, Комендантский проспект",3.9007895823865644,12.25,12250,Большая,3
190000,Миргородская,Санкт-Петербург,3584,53,Универсальное помещение,https://spb.n1.ru/view/116239134/?open_card_kn,"Миргородская, 1, Санкт-Петербург, Россия","{'district': 'округ Лиговка-Ямская', 'lat': 59.9259826, 'lon': 30.3687275}",округ Лиговка-Ямская,59.9259826,30.3687275,"Санкт-Петербург, Площадь Восстания",0.7611382392631375,3.6,3600,Средняя,2
1500000,Профессора Попова,Санкт-Петербург,3564,420,Универсальное помещение,https://spb.n1.ru/view/116239084/?open_card_kn,"Профессора Попова, 23, Санкт-Петербург, Россия","{'district': 'округ Аптекарский остров', 'lat': 59.9720944, 'lon': 30.3145843}",округ Аптекарский остров,59.9720944,30.3145843,"Санкт-Петербург, Петроградская",0.6566439489977094,3.87,3870,Крупная,4
200000,Загородный проспект,Санкт-Петербург,945,211,Универсальное помещение,https://spb.n1.ru/view/116239014/?open_card_kn,"Загородный проспект, 40, Санкт-Петербург, Россия","{'district': 'Владимирский округ', 'lat': 59.9237415, 'lon': 30.3368119}",Владимирский округ,59.9237415,30.3368119,"Санкт-Петербург, Звенигородская",0.16254360037061066,2.2,2200,Большая,3
60000,Окуловская,Санкт-Петербург,750,80,Универсальное помещение,https://spb.n1.ru/view/114513029/?open_card_kn,"Окуловская, 18, Санкт-Петербург, Россия","{'district': 'Район не найден', 'lat': 59.8066734, 'lon': 30.3627699}",Район не найден,59.8066734,30.3627699,"Санкт-Петербург, Купчино",2.6711259397961995,14.89,14890,Средняя,2
90000,Челюскина,Санкт-Петербург,2500,36,Универсальное помещение,https://spb.n1.ru/view/116238982/?open_card_kn,"Челюскина, 10, Санкт-Петербург, Россия","{'district': 'округ Морской', 'lat': 59.942244, 'lon': 30.1841512}",округ Морской,59.942244,30.1841512,"Санкт-Петербург, Приморская",2.8939473925448684,6.98,6980,Маленькая,1
458500,Челюскина,Санкт-Петербург,3500,131,Универсальное помещение,https://spb.n1.ru/view/115218156/?open_card_kn,"Челюскина, 10, Санкт-Петербург, Россия","{'district': 'округ Морской', 'lat': 59.942244, 'lon': 30.1841512}",округ Морской,59.942244,30.1841512,"Санкт-Петербург, Приморская",2.8939473925448684,6.98,6980,Большая,3
450000,Кирочная,Санкт-Петербург,2922,154,Универсальное помещение,https://spb.n1.ru/view/113060654/?open_card_kn,"Кирочная, 7, Санкт-Петербург, Россия","{'district': 'Литейный округ', 'lat': 59.9436076, 'lon': 30.3537454}",Литейный округ,59.9436076,30.3537454,"Санкт-Петербург, Чернышевская",0.3516037466623148,2.61,2610,Большая,3
166500,Ивана Куликова,Санкт-Петербург,1500,111,Универсальное помещение,https://spb.n1.ru/view/115927124/?open_card_kn,"Ивана Куликова, 12, Санкт-Петербург, Россия","{'district': 'округ Сосновая поляна', 'lat': 59.8337211, 'lon': 30.1079004}",округ Сосновая поляна,59.8337211,30.1079004,"Санкт-Петербург, Проспект Ветеранов",8.0778435969621,16.12,16120,Средняя,2
150000,Дыбенко,Санкт-Петербург,5000,30,Универсальное помещение,https://spb.n1.ru/view/116238973/?open_card_kn,"Дыбенко, 24 корп. 1, Санкт-Петербург, Россия","{'district': 'округ № 54', 'lat': 59.9101431, 'lon': 30.4976398}",округ № 54,59.9101431,30.4976398,"Санкт-Петербург, Улица Дыбенко",0.8537797861101792,11.0,11000,Маленькая,1
119000,проспект Крузенштерна,Санкт-Петербург,952,125,Универсальное помещение,https://spb.n1.ru/view/112260049/?open_card_kn,"проспект Крузенштерна, 2, Санкт-Петербург, Россия","{'district': 'округ Гавань', 'lat': 59.9312848, 'lon': 30.2012187}",округ Гавань,59.9312848,30.2012187,"Санкт-Петербург, Приморская",2.6678967913186225,6.04,6040,Большая,3
130000,Савушкина,Санкт-Петербург,1604,81,Универсальное помещение,https://spb.n1.ru/view/116232274/?open_card_kn,"Савушкина, 68, Санкт-Петербург, Россия","{'district': 'округ Ланское', 'lat': 59.9838708, 'lon': 30.2729017}",округ Ланское,59.9838708,30.2729017,"Санкт-Петербург, Старая Деревня",1.1451271512478913,5.54,5540,Средняя,2
70000,Малая Пушкарская,Санкт-Петербург,1555,45,Универсальное помещение,https://spb.n1.ru/view/116232060/?open_card_kn,"Малая Пушкарская, 20/4, Санкт-Петербург, Россия","{'district': 'округ Кронверкское', 'lat': 59.9593622, 'lon': 30.3059429}",округ Кронверкское,59.9593622,30.3059429,"Санкт-Петербург, Чкаловская",0.7964771345627346,2.44,2440,Маленькая,1
539910,Марата,Санкт-Петербург,2100,257,Универсальное помещение,https://spb.n1.ru/view/116232058/?open_card_kn,"Марата, 8, Санкт-Петербург, Россия","{'district': 'Владимирский округ', 'lat': 59.9301802, 'lon': 30.3550907}",Владимирский округ,59.9301802,30.3550907,"Санкт-Петербург, Маяковская",0.1573781308729525,2.72,2720,Большая,3
25000,Шпалерная,Санкт-Петербург,2083,12,Универсальное помещение,https://spb.n1.ru/view/116231906/?open_card_kn,"Шпалерная, 52а, Санкт-Петербург, Россия","{'district': 'округ Смольнинское', 'lat': 59.9494851, 'lon': 30.3722377}",округ Смольнинское,59.9494851,30.3722377,"Санкт-Петербург, Чернышевская",0.8869365563358702,3.8,3800,Маленькая,1
50000,Шпалерная,Санкт-Петербург,1000,50,Универсальное помещение,https://spb.n1.ru/view/116231902/?open_card_kn,"Шпалерная, 52а, Санкт-Петербург, Россия","{'district': 'округ Смольнинское', 'lat': 59.9494851, 'lon': 30.3722377}",округ Смольнинское,59.9494851,30.3722377,"Санкт-Петербург, Чернышевская",0.8869365563358702,3.8,3800,Средняя,2
112500,Планерная,Санкт-Петербург,1800,62,Универсальное помещение,https://spb.n1.ru/view/116231729/?open_card_kn,"Планерная, 91 корп. 1, Санкт-Петербург, Россия","{'district': 'округ № 65', 'lat': 60.0005961, 'lon': 30.2345254}",округ № 65,60.0005961,30.2345254,"Санкт-Петербург, Комендантский проспект",1.605911632302369,8.16,8160,Средняя,2
280000,Чкаловский проспект,Санкт-Петербург,2043,137,Универсальное помещение,https://spb.n1.ru/view/116231728/?open_card_kn,"Чкаловский проспект, 60, Санкт-Петербург, Россия","{'district': 'округ Чкаловское', 'lat': 59.9687442, 'lon': 30.3028524}",округ Чкаловское,59.9687442,30.3028524,"Санкт-Петербург, Петроградская",0.545703960079104,3.5,3500,Большая,3
781256,Красуцкого,Санкт-Петербург,980,797,Универсальное помещение,https://spb.n1.ru/view/116231724/?open_card_kn,"Красуцкого, 4, Санкт-Петербург, Россия","{'district': 'округ Измайловское', 'lat': 59.9026698, 'lon': 30.3144723}",округ Измайловское,59.9026698,30.3144723,"Санкт-Петербург, Фрунзенская (закрыта)",0.43398774598892526,3.89,3890,Очень крупная,5
30000,Шпалерная,Санкт-Петербург,769,39,Универсальное помещение,https://spb.n1.ru/view/116231723/?open_card_kn,"Шпалерная, 52а, Санкт-Петербург, Россия","{'district': 'округ Смольнинское', 'lat': 59.9494851, 'lon': 30.3722377}",округ Смольнинское,59.9494851,30.3722377,"Санкт-Петербург, Чернышевская",0.8869365563358702,3.8,3800,Маленькая,1
188676,проспект Крузенштерна,Санкт-Петербург,1800,104,Универсальное помещение,https://spb.n1.ru/view/116231564/?open_card_kn,"проспект Крузенштерна, 2, Санкт-Петербург, Россия","{'district': 'округ Гавань', 'lat': 59.9312848, 'lon': 30.2012187}",округ Гавань,59.9312848,30.2012187,"Санкт-Петербург, Приморская",2.6678967913186225,6.04,6040,Средняя,2
175000,Богатырский проспект,Санкт-Петербург,1666,105,Универсальное помещение,https://spb.n1.ru/view/116231563/?open_card_kn,"Богатырский проспект, 60 корп. 1, Санкт-Петербург, Россия","{'district': 'округ № 65', 'lat': 60.0028849, 'lon': 30.2415383}",округ № 65,60.0028849,30.2415383,"Санкт-Петербург, Комендантский проспект",1.1403241804600086,8.19,8189,Средняя,2
70650,Народного Ополчения проспект,Санкт-Петербург,1500,47,Универсальное помещение,https://spb.n1.ru/view/115579640/?open_card_kn,"Народного Ополчения проспект, 149, Санкт-Петербург, Россия","{'district': 'округ Ульянка', 'lat': 59.8309479, 'lon': 30.2458566}",округ Ульянка,59.8309479,30.2458566,"Санкт-Петербург, Проспект Ветеранов",1.2506367547512336,12.38,12380,Маленькая,1
147000,Головнина Бульвар,Санкт-Петербург,1646,89,Универсальное помещение,https://spb.n1.ru/view/115579638/?open_card_kn,"Головнина Бульвар, 4, Санкт-Петербург, Россия","{'district': 'округ Гавань', 'lat': 59.9335037, 'lon': 30.2037254}",округ Гавань,59.9335037,30.2037254,"Санкт-Петербург, Приморская",2.3946788924481477,5.88,5880,Средняя,2
